business_id,business_name,business_address,business_postal_code,business_latitude,business_longitude,business_location,business_phone_number,inspection_id,inspection_date,inspection_score,violation_id,violation_description,risk_category
4864,DRAGON CITY BAKERY & CAFE,2367 MISSION St,94110,37.759174,-122.419066,"(37.759174, -122.419066)",14155829718,4864_20161206,12/6/16,84,4864_20161206_103157,Food safety certificate or food handler card not available,Low Risk
3838,CAFE PICARO,3120 16th St,94103,37.764908,-122.422442,"(37.764908, -122.422442)",14155434089,3838_20180222,2/22/18,72,3838_20180222_103142,Unclean nonfood contact surfaces,Low Risk
6348,Castro Street Chevron,2399 Market St,94114,37.762857,-122.434755,"(37.762857, -122.434755)",14155622570,6348_20151224,12/24/15,100,,,
4478,AFC Sushi @ Safeway #1490,2300 16th St,94103,37.765708,-122.409002,"(37.765708, -122.409002)",14155571120,4478_20171206,12/6/17,100,,,
64380,Michael Mina Restaurant,252 California St,94111,37.793338,-122.399583,"(37.793338, -122.399583)",14155350791,64380_20160414,4/14/16,86,64380_20160414_103154,Unclean or degraded floors walls or ceilings,Low Risk
4787,TONY BALONEY'S,1098 HOWARD St,94103,37.778033,-122.40943,"(37.778033, -122.40943)",14155861514,4787_20160628,6/28/16,83,4787_20160628_103131,Moderate risk vermin infestation,Moderate Risk
33700,Casa Guadalupe #3,2999 MISSION,94110,37.749194,-122.418116,"(37.749194, -122.418116)",14155875145,33700_20160412,4/12/16,90,33700_20160412_103119,Inadequate and inaccessible handwashing facilities,Moderate Risk
1596,BURGERMEISTER,86 Carl St,94117,37.765848,-122.449664,"(37.765848, -122.449664)",14155564433,1596_20171201,12/1/17,96,1596_20171201_103144,Unapproved or unmaintained equipment or utensils,Low Risk
59838,OTD,2232 Bush St,94115,37.786988,-122.434074,"(37.786988, -122.434074)",14155929578,59838_20160531,5/31/16,92,59838_20160531_103133,Foods not protected from contamination,Moderate Risk
69769,Whole Foods Market,1150 Ocean Ave,94112,37.723652,-122.45461,"(37.723652, -122.45461)",14155337400,69769_20180725,7/25/18,90,69769_20180725_103144,Unapproved or unmaintained equipment or utensils,Low Risk
27377,Sorabol,845 Market St FC-3,94103,37.784848,-122.406892,"(37.784848, -122.406892)",14155775959,27377_20180514,5/14/18,87,27377_20180514_103103,High risk food holding temperature,High Risk
32586,Terroir,81 Langton St,94103,37.776494,-122.408562,"(37.776494, -122.408562)",14155718949,32586_20160906,9/6/16,96,32586_20160906_103144,Unapproved or unmaintained equipment or utensils,Low Risk
70685,5 Degree Tea House,2527 SAN BRUNO Ave,94134,37.729753,-122.40447,"(37.729753, -122.40447)",14155828233,70685_20171212,12/12/17,86,70685_20171212_103119,Inadequate and inaccessible handwashing facilities,Moderate Risk
4907,JIM GEORGIE'S DONUT,2799 16th St,94103,37.765262,-122.41523,"(37.765262, -122.41523)",14155867112,4907_20170105,1/5/17,80,4907_20170105_103131,Moderate risk vermin infestation,Moderate Risk
69282,New Jumbo Seafood Restaurant,1532 NORIEGA St,94122,37.754132,-122.480058,"(37.754132, -122.480058)",14155681800,69282_20160413,4/13/16,76,69282_20160413_103119,Inadequate and inaccessible handwashing facilities,Moderate Risk
3253,S F GOLF CLUB,1310 Junipero Serra Blvd,94132,37.711329,-122.471316,"(37.711329, -122.471316)",14155464100,3253_20160413,4/13/16,88,3253_20160413_103132,Improper thawing methods,Moderate Risk
18826,Fresca Restaurant,2114 FILLMORE St,94115,37.789074,-122.433783,"(37.789074, -122.433783)",14155442668,18826_20160926,9/26/16,83,18826_20160926_103119,Inadequate and inaccessible handwashing facilities,Moderate Risk
2134,"CHIEFTAIN IRISH PUB, THE",198 05th St,94103,37.781567,-122.405059,"(37.781567, -122.405059)",14155610916,2134_20161109,11/9/16,87,2134_20161109_103103,High risk food holding temperature,High Risk
5829,LAFAYETTE ELEMENTARY SCHOOL,4545 ANZA St,94121,37.777603,-122.49649,"(37.777603, -122.49649)",14155758483,5829_20160412,4/12/16,100,,,
60544,Manzoni,2790 Diamond St,94131,37.73473,-122.433823,"(37.73473, -122.433823)",14155332251,60544_20160929,9/29/16,92,60544_20160929_103157,Food safety certificate or food handler card not available,Low Risk
62578,New Chef Hung's Restaurant,823 Clay St,94108,37.794193,-122.406677,"(37.794193, -122.406677)",14155396883,62578_20171207,12/7/17,66,62578_20171207_103145,Improper storage of equipment utensils or linens,Low Risk
69181,Cha-Ya Restaurant,762 Valencia St,94110,37.760777,-122.421505,"(37.760777, -122.421505)",14155257825,69181_20160330,3/30/16,92,69181_20160330_103120,Moderate risk food holding temperature,Moderate Risk
7689,UNOCAL 76  PACIFIC ENTERPRISES,999 OCEAN Ave,94112,37.723133,-122.452707,"(37.723133, -122.452707)",14155588296,7689_20160811,8/11/16,98,7689_20160811_103148,No thermometers or uncalibrated thermometers,Low Risk
5913,ST CHARLES SCHOOL,3250 18th St,94110,37.762074,-122.416107,"(37.762074, -122.416107)",14155867652,5913_20160906,9/6/16,92,5913_20160906_103131,Moderate risk vermin infestation,Moderate Risk
2755,SOCIALE,3665 SACRAMENTO St,94118,37.787364,-122.45299,"(37.787364, -122.45299)",14155920309,2755_20161205,12/5/16,85,2755_20161205_103114,High risk vermin infestation,High Risk
68944,Peet's Coffee and Tea,1630 Holloway Ave,94132,37.720877,-122.477651,"(37.720877, -122.477651)",14155374525,68944_20160509,5/9/16,100,,,
5219,SALVATION ARMY GATEWAY,407 09th St,94103,37.772473,-122.409879,"(37.772473, -122.409879)",14155256100,5219_20180511,5/11/18,94,5219_20180511_103139,Improper food storage,Low Risk
59002,Yummy Bakery & Restaurant,607 Jackson St,94133,37.796152,-122.405255,"(37.796152, -122.405255)",14155988388,59002_20180515,5/15/18,92,59002_20180515_103138,Improper storage use or identification of toxic substances,Low Risk
62064,California Grocery,123 Eddy St,94102,37.784303,-122.409647,"(37.784303, -122.409647)",14155448608,62064_20160411,4/11/16,75,62064_20160411_103150,Improper or defective plumbing,Low Risk
13814,Go Go Market & Deli,99 09th St,94103,37.774722,-122.406761,"(37.774722, -122.406761)",14155863536,13814_20160930,9/30/16,82,13814_20160930_103124,Inadequately cleaned or sanitized food contact surfaces,Moderate Risk
2061,ATAMI SUSHI BAR & GRILL,1662 LOMBARD St,94123,37.800788,-122.428894,"(37.800788, -122.428894)",14155611958,2061_20180223,2/23/18,94,2061_20180223_103133,Foods not protected from contamination,Moderate Risk
69282,New Jumbo Seafood Restaurant,1532 NORIEGA St,94122,37.754132,-122.480058,"(37.754132, -122.480058)",14155681800,69282_20160413,4/13/16,76,69282_20160413_103142,Unclean nonfood contact surfaces,Low Risk
68773,Nopalito,1224 9th Ave,94122,37.765412,-122.466375,"(37.765412, -122.466375)",14155430303,68773_20180214,2/14/18,90,68773_20180214_103139,Improper food storage,Low Risk
63082,The Brick Yard,1787 Union St,94123,37.797933,-122.428627,"(37.797933, -122.428627)",14156677676,63082_20180222,2/22/18,87,63082_20180222_103133,Foods not protected from contamination,Moderate Risk
3253,S F GOLF CLUB,1310 Junipero Serra Blvd,94132,37.711329,-122.471316,"(37.711329, -122.471316)",14155464100,3253_20160413,4/13/16,88,3253_20160413_103120,Moderate risk food holding temperature,Moderate Risk
4685,NORMAN'S LIQUOR & DELI,733 Randolph St,94132,37.714204,-122.469193,"(37.714204, -122.469193)",14155580088,4685_20161203,12/3/16,96,4685_20161203_103156,Permit license or inspection report not posted,Low Risk
64380,Michael Mina Restaurant,252 California St,94111,37.793338,-122.399583,"(37.793338, -122.399583)",14155350791,64380_20160414,4/14/16,86,64380_20160414_103147,Inadequate ventilation or lighting,Low Risk
1005,CHAVITA'S MEXICAN RESTAURANT,3006 MISSION St,94110,37.748855,-122.418134,"(37.748855, -122.418134)",14155286927,1005_20160502,5/2/16,84,1005_20160502_103131,Moderate risk vermin infestation,Moderate Risk
64805,Andersen Bread,1390 Market St Suite 110,94102,37.777053,-122.416939,"(37.777053, -122.416939)",14150427100,64805_20170105,1/5/17,94,64805_20170105_103120,Moderate risk food holding temperature,Moderate Risk
999,SERRANO'S PIZZA II,3274 21st St,94110,37.756997,-122.420534,"(37.756997, -122.420534)",14155691615,999_20160503,5/3/16,81,999_20160503_103133,Foods not protected from contamination,Moderate Risk
3838,CAFE PICARO,3120 16th St,94103,37.764908,-122.422442,"(37.764908, -122.422442)",14155434089,3838_20180222,2/22/18,72,3838_20180222_103144,Unapproved or unmaintained equipment or utensils,Low Risk
4874,JUMP START COFFEE & GROCERY,1192 GUERRERO St,94110,37.752118,-122.422914,"(37.752118, -122.422914)",14155647555,4874_20160502,5/2/16,90,4874_20160502_103149,Wiping cloths not clean or properly stored or inadequate sanitizer,Low Risk
1641,MARTHA & BROS. COFFEE CO,1551 Church St,94131,37.745974,-122.426856,"(37.745974, -122.426856)",14155641166,1641_20160812,8/12/16,84,1641_20160812_103145,Improper storage of equipment utensils or linens,Low Risk
5033,DESTINATION BAKING COMPANY,598 Chenery St,94131,37.734619,-122.432379,"(37.734619, -122.432379)",14155460730,5033_20170104,1/4/17,86,5033_20170104_103147,Inadequate ventilation or lighting,Low Risk
5853,RAOUL WALLENBERG HIGH SCHOOL,40 VEGA St,94115,37.780133,-122.445864,"(37.780133, -122.445864)",14155743469,5853_20180227,2/27/18,94,5853_20180227_103147,Inadequate ventilation or lighting,Low Risk
4797,"Good Life Grocery, The",448 CORTLAND Ave,94110,37.739053,-122.416683,"(37.739053, -122.416683)",14155643221,4797_20171130,11/30/17,86,4797_20171130_103132,Improper thawing methods,Moderate Risk
999,SERRANO'S PIZZA II,3274 21st St,94110,37.756997,-122.420534,"(37.756997, -122.420534)",14155691615,999_20160503,5/3/16,81,999_20160503_103116,Inadequate food safety knowledge or lack of certified food safety manager,Moderate Risk
19416,Starbucks,865 Market St C26,94103,37.784317,-122.407563,"(37.784317, -122.407563)",14155604908,19416_20180718,7/18/18,96,19416_20180718_103154,Unclean or degraded floors walls or ceilings,Low Risk
5813,LICK MIDDLE SCHOOL,1220 Noe St,94114,37.74949,-122.43175,"(37.74949, -122.43175)",14155816139,5813_20160502,5/2/16,100,,,
61856,Yoppi Yogurt,101 California St,94111,37.793424,-122.398168,"(37.793424, -122.398168)",14155264677,61856_20160413,4/13/16,90,61856_20160413_103156,Permit license or inspection report not posted,Low Risk
13814,Go Go Market & Deli,99 09th St,94103,37.774722,-122.406761,"(37.774722, -122.406761)",14155863536,13814_20160930,9/30/16,82,13814_20160930_103119,Inadequate and inaccessible handwashing facilities,Moderate Risk
4804,SUBWAY #31419,2599 SAN BRUNO Ave,94134,37.728933,-122.40413,"(37.728933, -122.40413)",14150540880,4804_20161206,12/6/16,86,4804_20161206_103150,Improper or defective plumbing,Low Risk
2724,HUNAN EMPIRE,2001 Union St #107,94123,37.797443,-122.432537,"(37.797443, -122.432537)",14155774735,2724_20160929,9/29/16,92,2724_20160929_103119,Inadequate and inaccessible handwashing facilities,Moderate Risk
5813,LICK MIDDLE SCHOOL,1220 Noe St,94114,37.74949,-122.43175,"(37.74949, -122.43175)",14155816139,5813_20151021,10/21/15,96,5813_20151021_103120,Moderate risk food holding temperature,Moderate Risk
5841,JEFFERSON ELEMENTARY SCHOOL,1725 IRVING St,94122,37.763543,-122.476332,"(37.763543, -122.476332)",14155752821,5841_20160506,5/6/16,91,5841_20160506_103144,Unapproved or unmaintained equipment or utensils,Low Risk
4801,YICK'S LIQUOR,4701 MISSION St,94112,37.72304,-122.436017,"(37.72304, -122.436017)",14155582662,4801_20161110,11/10/16,94,4801_20161110_103119,Inadequate and inaccessible handwashing facilities,Moderate Risk
7744,SAFEWAY #759,625 MONTEREY Blvd,94127,37.731523,-122.45005,"(37.731523, -122.45005)",14155582421,7744_20160809,8/9/16,98,7744_20160809_103144,Unapproved or unmaintained equipment or utensils,Low Risk
32671,La Taqueria Guadalajara,3146 24th St,94110,37.752512,-122.415109,"(37.752512, -122.415109)",14155644892,32671_20180508,5/8/18,75,32671_20180508_103154,Unclean or degraded floors walls or ceilings,Low Risk
62064,California Grocery,123 Eddy St,94102,37.784303,-122.409647,"(37.784303, -122.409647)",14155448608,62064_20160411,4/11/16,75,62064_20160411_103119,Inadequate and inaccessible handwashing facilities,Moderate Risk
3267,The Olive Garden Italian,3251 20th Ave,94132,37.728497,-122.475639,"(37.728497, -122.475639)",14155666770,3267_20180510,5/10/18,83,3267_20180510_103147,Inadequate ventilation or lighting,Low Risk
33700,Casa Guadalupe #3,2999 MISSION,94110,37.749194,-122.418116,"(37.749194, -122.418116)",14155875145,33700_20160412,4/12/16,90,33700_20160412_103145,Improper storage of equipment utensils or linens,Low Risk
4804,SUBWAY #31419,2599 SAN BRUNO Ave,94134,37.728933,-122.40413,"(37.728933, -122.40413)",14150540880,4804_20161206,12/6/16,86,4804_20161206_103132,Improper thawing methods,Moderate Risk
3253,S F GOLF CLUB,1310 Junipero Serra Blvd,94132,37.711329,-122.471316,"(37.711329, -122.471316)",14155464100,3253_20160413,4/13/16,88,3253_20160413_103144,Unapproved or unmaintained equipment or utensils,Low Risk
69259,Goat Hill Pizza,170 WEST PORTAL Ave,94127,37.739154,-122.467794,"(37.739154, -122.467794)",14155641440,69259_20180911,9/11/18,100,,,
2369,CLOONEY'S,1401 Valencia St,94110,37.750374,-122.420456,"(37.750374, -122.420456)",14155824988,2369_20160324,3/24/16,86,2369_20160324_103120,Moderate risk food holding temperature,Moderate Risk
4917,LA VICTORIA BAKERY,2937 24th St,94110,37.752373,-122.410876,"(37.752373, -122.410876)",14155647120,4917_20160906,9/6/16,78,4917_20160906_103142,Unclean nonfood contact surfaces,Low Risk
2542,PETER D'S RESTAURANT,2201 Van Ness St,94109,37.795993,-122.423585,"(37.795993, -122.423585)",14155778505,2542_20171208,12/8/17,65,2542_20171208_103116,Inadequate food safety knowledge or lack of certified food safety manager,Moderate Risk
4685,NORMAN'S LIQUOR & DELI,733 Randolph St,94132,37.714204,-122.469193,"(37.714204, -122.469193)",14155580088,4685_20161203,12/3/16,96,4685_20161203_103144,Unapproved or unmaintained equipment or utensils,Low Risk
62064,California Grocery,123 Eddy St,94102,37.784303,-122.409647,"(37.784303, -122.409647)",14155448608,62064_20160411,4/11/16,75,62064_20160411_103139,Improper food storage,Low Risk
5841,JEFFERSON ELEMENTARY SCHOOL,1725 IRVING St,94122,37.763543,-122.476332,"(37.763543, -122.476332)",14155752821,5841_20160506,5/6/16,91,5841_20160506_103114,High risk vermin infestation,High Risk
4479,Courtney's Produce II,101 CASTRO St,94114,37.767194,-122.435576,"(37.767194, -122.435576)",14155621850,4479_20170105,1/5/17,92,4479_20170105_103141,Improper food labeling or menu misrepresentation,Low Risk
4667,EMPIRE THEATRE,085 WEST PORTAL Ave,94127,37.739883,-122.466749,"(37.739883, -122.466749)",14155664950,4667_20171206,12/6/17,100,,,
2134,"CHIEFTAIN IRISH PUB, THE",198 05th St,94103,37.781567,-122.405059,"(37.781567, -122.405059)",14155610916,2134_20161109,11/9/16,87,2134_20161109_103124,Inadequately cleaned or sanitized food contact surfaces,Moderate Risk
62064,California Grocery,123 Eddy St,94102,37.784303,-122.409647,"(37.784303, -122.409647)",14155448608,62064_20160411,4/11/16,75,62064_20160411_103129,Insufficient hot water or running water,Moderate Risk
62308,Sam's Diner,1220 Market Street,94102,37.778497,-122.415146,"(37.778497, -122.415146)",14155628590,62308_20160203,2/3/16,72,62308_20160203_103131,Moderate risk vermin infestation,Moderate Risk
33700,Casa Guadalupe #3,2999 MISSION,94110,37.749194,-122.418116,"(37.749194, -122.418116)",14155875145,33700_20160412,4/12/16,90,33700_20160412_103138,Improper storage use or identification of toxic substances,Low Risk
4702,SHUFAT MARKET,3807 24th St,94114,37.751664,-122.427688,"(37.751664, -122.427688)",14155826207,4702_20180226,2/26/18,96,4702_20180226_103131,Moderate risk vermin infestation,Moderate Risk
67187,Chipotle Mexican Grill #1560,333 Jefferson St #104,94133,37.807923,-122.417887,"(37.807923, -122.417887)",14155503533,67187_20160413,4/13/16,100,,,
64380,Michael Mina Restaurant,252 California St,94111,37.793338,-122.399583,"(37.793338, -122.399583)",14155350791,64380_20160414,4/14/16,86,64380_20160414_103144,Unapproved or unmaintained equipment or utensils,Low Risk
5951,ST. THOMAS MORE,50 THOMAS MORE Way,94132,37.712259,-122.47308,"(37.712259, -122.47308)",14155330100,5951_20160413,4/13/16,91,5951_20160413_103103,High risk food holding temperature,High Risk
2134,"CHIEFTAIN IRISH PUB, THE",198 05th St,94103,37.781567,-122.405059,"(37.781567, -122.405059)",14155610916,2134_20171211,12/11/17,87,2134_20171211_103103,High risk food holding temperature,High Risk
69181,Cha-Ya Restaurant,762 Valencia St,94110,37.760777,-122.421505,"(37.760777, -122.421505)",14155257825,69181_20160330,3/30/16,92,69181_20160330_103144,Unapproved or unmaintained equipment or utensils,Low Risk
5893,CLEVELAND ELEMENTARY SCHOOL,455 ATHENS St,94112,37.720765,-122.429004,"(37.720765, -122.429004)",14155464709,5893_20160429,4/29/16,100,,,
3267,The Olive Garden Italian,3251 20th Ave,94132,37.728497,-122.475639,"(37.728497, -122.475639)",14155666770,3267_20180510,5/10/18,83,3267_20180510_103108,Contaminated or adulterated food,High Risk
774,BAY VIEW BOAT CLUB,429 Terry Francois St,94107,37.772667,-122.387032,"(37.772667, -122.387032)",14155567650,774_20161205,12/5/16,90,774_20161205_103157,Food safety certificate or food handler card not available,Low Risk
2755,SOCIALE,3665 SACRAMENTO St,94118,37.787364,-122.45299,"(37.787364, -122.45299)",14155920309,2755_20161205,12/5/16,85,2755_20161205_103119,Inadequate and inaccessible handwashing facilities,Moderate Risk
62578,New Chef Hung's Restaurant,823 Clay St,94108,37.794193,-122.406677,"(37.794193, -122.406677)",14155396883,62578_20171207,12/7/17,66,62578_20171207_103141,Improper food labeling or menu misrepresentation,Low Risk
61856,Yoppi Yogurt,101 California St,94111,37.793424,-122.398168,"(37.793424, -122.398168)",14155264677,61856_20160413,4/13/16,90,61856_20160413_103119,Inadequate and inaccessible handwashing facilities,Moderate Risk
60544,Manzoni,2790 Diamond St,94131,37.73473,-122.433823,"(37.73473, -122.433823)",14155332251,60544_20160929,9/29/16,92,60544_20160929_103120,Moderate risk food holding temperature,Moderate Risk
3228,THANH LONG RESTAURANT,4101 JUDAH St,94122,37.760383,-122.50609,"(37.760383, -122.50609)",14155257984,3228_20160330,3/30/16,92,3228_20160330_103157,Food safety certificate or food handler card not available,Low Risk
5824,S.F. International High School,1050 YORK St,94110,37.755257,-122.408455,"(37.755257, -122.408455)",14155695780,5824_20180227,2/27/18,92,5824_20180227_103116,Inadequate food safety knowledge or lack of certified food safety manager,Moderate Risk
1005,CHAVITA'S MEXICAN RESTAURANT,3006 MISSION St,94110,37.748855,-122.418134,"(37.748855, -122.418134)",14155286927,1005_20160502,5/2/16,84,1005_20160502_103124,Inadequately cleaned or sanitized food contact surfaces,Moderate Risk
2497,PLUTO'S,3258 SCOTT St,94123,37.799796,-122.441041,"(37.799796, -122.441041)",14155778867,2497_20160607,6/7/16,85,2497_20160607_103133,Foods not protected from contamination,Moderate Risk
7755,ARIZMENDI BAKERY,1331 09th Ave,94122,37.763448,-122.466344,"(37.763448, -122.466344)",14155563117,7755_20180904,9/4/18,92,7755_20180904_103149,Wiping cloths not clean or properly stored or inadequate sanitizer,Low Risk
59838,OTD,2232 Bush St,94115,37.786988,-122.434074,"(37.786988, -122.434074)",14155929578,59838_20160531,5/31/16,92,59838_20160531_103129,Insufficient hot water or running water,Moderate Risk
69792,Samiramis Imports,2990 MISSION St,94110,37.74923,-122.418224,"(37.74923, -122.418224)",14155826555,69792_20160412,4/12/16,88,69792_20160412_103177,Non service animal,Low Risk
66536,Cypress Grill,99 Harding Park Rd,94132,37.723698,-122.495289,"(37.723698, -122.495289)",14155664690,66536_20160413,4/13/16,90,66536_20160413_103120,Moderate risk food holding temperature,Moderate Risk
3267,The Olive Garden Italian,3251 20th Ave,94132,37.728497,-122.475639,"(37.728497, -122.475639)",14155666770,3267_20180510,5/10/18,83,3267_20180510_103120,Moderate risk food holding temperature,Moderate Risk
5877,CLAIRE LILIENTHAL SCHOOL-MADISON CA,3950 SACRAMENTO St,94118,37.786808,-122.458014,"(37.786808, -122.458014)",14155758603,5877_20180228,2/28/18,100,,,
2497,PLUTO'S,3258 SCOTT St,94123,37.799796,-122.441041,"(37.799796, -122.441041)",14155778867,2497_20160607,6/7/16,85,2497_20160607_103144,Unapproved or unmaintained equipment or utensils,Low Risk
62308,Sam's Diner,1220 Market Street,94102,37.778497,-122.415146,"(37.778497, -122.415146)",14155628590,62308_20160203,2/3/16,72,62308_20160203_103120,Moderate risk food holding temperature,Moderate Risk
33160,Mission Bay Cafe,550 Terry Francois St,94158,37.770518,-122.386525,"(37.770518, -122.386525)",14155831002,33160_20161205,12/5/16,94,33160_20161205_103165,No plan review or Building Permit,Low Risk
69282,New Jumbo Seafood Restaurant,1532 NORIEGA St,94122,37.754132,-122.480058,"(37.754132, -122.480058)",14155681800,69282_20160413,4/13/16,76,69282_20160413_103147,Inadequate ventilation or lighting,Low Risk
2134,"CHIEFTAIN IRISH PUB, THE",198 05th St,94103,37.781567,-122.405059,"(37.781567, -122.405059)",14155610916,2134_20171211,12/11/17,87,2134_20171211_103154,Unclean or degraded floors walls or ceilings,Low Risk
5847,John Muir Elementary School,380 Webster St,94117,37.774046,-122.429076,"(37.774046, -122.429076)",14155246335,5847_20160309,3/9/16,92,5847_20160309_103131,Moderate risk vermin infestation,Moderate Risk
4917,LA VICTORIA BAKERY,2937 24th St,94110,37.752373,-122.410876,"(37.752373, -122.410876)",14155647120,4917_20160906,9/6/16,78,4917_20160906_103154,Unclean or degraded floors walls or ceilings,Low Risk
66411,Del Popolo LLC,269 Chattanooga St,94114,37.752274,-122.426336,"(37.752274, -122.426336)",14154276600,66411_20160607,6/7/16,100,,,
66536,Cypress Grill,99 Harding Park Rd,94132,37.723698,-122.495289,"(37.723698, -122.495289)",14155664690,66536_20160413,4/13/16,90,66536_20160413_103149,Wiping cloths not clean or properly stored or inadequate sanitizer,Low Risk
5999,The Salvation Army,1156 Valencia St,94110,37.754397,-122.420915,"(37.754397, -122.420915)",14155640260,5999_20180724,7/24/18,90,5999_20180724_103124,Inadequately cleaned or sanitized food contact surfaces,Moderate Risk
5830,Theodore Roosevelt Middle School,460 Arguello Blvd,94118,37.782383,-122.458926,"(37.782383, -122.458926)",14155758446,5830_20180226,2/26/18,100,,,
4794,VICTOR'S,210 TOWNSEND St,94107,37.778634,-122.393089,"(37.778634, -122.393089)",14155607018,4794_20170105,1/5/17,90,4794_20170105_103157,Food safety certificate or food handler card not available,Low Risk
999,SERRANO'S PIZZA II,3274 21st St,94110,37.756997,-122.420534,"(37.756997, -122.420534)",14155691615,999_20160503,5/3/16,81,999_20160503_103149,Wiping cloths not clean or properly stored or inadequate sanitizer,Low Risk
2638,SF BAGEL CO. (KATZ BAGELS),3147 16th St,94103,37.764814,-122.423089,"(37.764814, -122.423089)",14155559050,2638_20180830,8/30/18,86,2638_20180830_103144,Unapproved or unmaintained equipment or utensils,Low Risk
68773,Nopalito,1224 9th Ave,94122,37.765412,-122.466375,"(37.765412, -122.466375)",14155430303,68773_20180214,2/14/18,90,68773_20180214_103161,Low risk vermin infestation,Low Risk
4787,TONY BALONEY'S,1098 HOWARD St,94103,37.778033,-122.40943,"(37.778033, -122.40943)",14155861514,4787_20160628,6/28/16,83,4787_20160628_103109,Unclean or unsanitary food contact surfaces,High Risk
4787,TONY BALONEY'S,1098 HOWARD St,94103,37.778033,-122.40943,"(37.778033, -122.40943)",14155861514,4787_20160628,6/28/16,83,4787_20160628_103157,Food safety certificate or food handler card not available,Low Risk
3228,THANH LONG RESTAURANT,4101 JUDAH St,94122,37.760383,-122.50609,"(37.760383, -122.50609)",14155257984,3228_20160330,3/30/16,92,3228_20160330_103144,Unapproved or unmaintained equipment or utensils,Low Risk
7488,EUROPA EXPRESS,746-750 LA PLAYA St,94121,37.774248,-122.510043,"(37.774248, -122.510043)",14155644917,7488_20180209,2/9/18,94,7488_20180209_103144,Unapproved or unmaintained equipment or utensils,Low Risk
7095,ABE'S MARKET,378 FILLMORE St,94117,37.772822,-122.430498,"(37.772822, -122.430498)",14155862576,7095_20171211,12/11/17,92,7095_20171211_103119,Inadequate and inaccessible handwashing facilities,Moderate Risk
5905,MARINA MIDDLE SCHOOL,3500 FILLMORE St,94123,37.801776,-122.43641,"(37.801776, -122.43641)",14155743495,5905_20160325,3/25/16,92,5905_20160325_103147,Inadequate ventilation or lighting,Low Risk
5913,ST CHARLES SCHOOL,3250 18th St,94110,37.762074,-122.416107,"(37.762074, -122.416107)",14155867652,5913_20160906,9/6/16,92,5913_20160906_103119,Inadequate and inaccessible handwashing facilities,Moderate Risk
2357,CHINA EXPRESS,2798 MISSION St,94110,37.752408,-122.418535,"(37.752408, -122.418535)",14155640881,2357_20151230,12/30/15,70,2357_20151230_103103,High risk food holding temperature,High Risk
4917,LA VICTORIA BAKERY,2937 24th St,94110,37.752373,-122.410876,"(37.752373, -122.410876)",14155647120,4917_20160906,9/6/16,78,4917_20160906_103156,Permit license or inspection report not posted,Low Risk
3825,COVE CAFE,434 CASTRO St,94114,37.761918,-122.435135,"(37.761918, -122.435135)",14155620462,3825_20180724,7/24/18,90,3825_20180724_103132,Improper thawing methods,Moderate Risk
2369,CLOONEY'S,1401 Valencia St,94110,37.750374,-122.420456,"(37.750374, -122.420456)",14155824988,2369_20160324,3/24/16,86,2369_20160324_103119,Inadequate and inaccessible handwashing facilities,Moderate Risk
999,SERRANO'S PIZZA II,3274 21st St,94110,37.756997,-122.420534,"(37.756997, -122.420534)",14155691615,999_20160503,5/3/16,81,999_20160503_103139,Improper food storage,Low Risk
10886,Taste of Formosa,2428 CLEMENT ST,94121,37.782018,-122.485421,"(37.782018, -122.485421)",14155666368,10886_20180906,9/6/18,88,10886_20180906_103162,Other low risk violation,Low Risk
64380,Michael Mina Restaurant,252 California St,94111,37.793338,-122.399583,"(37.793338, -122.399583)",14155350791,64380_20160414,4/14/16,86,64380_20160414_103127,Noncompliance with HAACP plan or variance,Moderate Risk
69792,Samiramis Imports,2990 MISSION St,94110,37.74923,-122.418224,"(37.74923, -122.418224)",14155826555,69792_20160412,4/12/16,88,69792_20160412_103139,Improper food storage,Low Risk
62277,Tacos San Buena,16th & Shotwell St,94102,37.779847,-122.418985,"(37.779847, -122.418985)",14155556127,62277_20180221,2/21/18,87,62277_20180221_103103,High risk food holding temperature,High Risk
33700,Casa Guadalupe #3,2999 MISSION,94110,37.749194,-122.418116,"(37.749194, -122.418116)",14155875145,33700_20160412,4/12/16,90,33700_20160412_103141,Improper food labeling or menu misrepresentation,Low Risk
5907,LILIENTHAL ELEMENTARY SCHOOL,3630 DIVISADERO St,94118,37.803537,-122.443547,"(37.803537, -122.443547)",14155743516,5907_20171207,12/7/17,100,,,
62064,California Grocery,123 Eddy St,94102,37.784303,-122.409647,"(37.784303, -122.409647)",14155448608,62064_20160411,4/11/16,75,62064_20160411_103114,High risk vermin infestation,High Risk
774,BAY VIEW BOAT CLUB,429 Terry Francois St,94107,37.772667,-122.387032,"(37.772667, -122.387032)",14155567650,774_20161205,12/5/16,90,774_20161205_103145,Improper storage of equipment utensils or linens,Low Risk
61856,Yoppi Yogurt,101 California St,94111,37.793424,-122.398168,"(37.793424, -122.398168)",14155264677,61856_20160413,4/13/16,90,61856_20160413_103124,Inadequately cleaned or sanitized food contact surfaces,Moderate Risk
3838,CAFE PICARO,3120 16th St,94103,37.764908,-122.422442,"(37.764908, -122.422442)",14155434089,3838_20180222,2/22/18,72,3838_20180222_103116,Inadequate food safety knowledge or lack of certified food safety manager,Moderate Risk
69792,Samiramis Imports,2990 MISSION St,94110,37.74923,-122.418224,"(37.74923, -122.418224)",14155826555,69792_20160412,4/12/16,88,69792_20160412_103133,Foods not protected from contamination,Moderate Risk
2755,SOCIALE,3665 SACRAMENTO St,94118,37.787364,-122.45299,"(37.787364, -122.45299)",14155920309,2755_20161205,12/5/16,85,2755_20161205_103154,Unclean or degraded floors walls or ceilings,Low Risk
2134,"CHIEFTAIN IRISH PUB, THE",198 05th St,94103,37.781567,-122.405059,"(37.781567, -122.405059)",14155610916,2134_20161109,11/9/16,87,2134_20161109_103142,Unclean nonfood contact surfaces,Low Risk
5905,MARINA MIDDLE SCHOOL,3500 FILLMORE St,94123,37.801776,-122.43641,"(37.801776, -122.43641)",14155743495,5905_20160325,3/25/16,92,5905_20160325_103145,Improper storage of equipment utensils or linens,Low Risk
4864,DRAGON CITY BAKERY & CAFE,2367 MISSION St,94110,37.759174,-122.419066,"(37.759174, -122.419066)",14155829718,4864_20161206,12/6/16,84,4864_20161206_103124,Inadequately cleaned or sanitized food contact surfaces,Moderate Risk
5951,ST. THOMAS MORE,50 THOMAS MORE Way,94132,37.712259,-122.47308,"(37.712259, -122.47308)",14155330100,5951_20160413,4/13/16,91,5951_20160413_103157,Food safety certificate or food handler card not available,Low Risk
1005,CHAVITA'S MEXICAN RESTAURANT,3006 MISSION St,94110,37.748855,-122.418134,"(37.748855, -122.418134)",14155286927,1005_20160502,5/2/16,84,1005_20160502_103133,Foods not protected from contamination,Moderate Risk
69282,New Jumbo Seafood Restaurant,1532 NORIEGA St,94122,37.754132,-122.480058,"(37.754132, -122.480058)",14155681800,69282_20160413,4/13/16,76,69282_20160413_103103,High risk food holding temperature,High Risk
999,SERRANO'S PIZZA II,3274 21st St,94110,37.756997,-122.420534,"(37.756997, -122.420534)",14155691615,999_20160503,5/3/16,81,999_20160503_103109,Unclean or unsanitary food contact surfaces,High Risk
1641,MARTHA & BROS. COFFEE CO,1551 Church St,94131,37.745974,-122.426856,"(37.745974, -122.426856)",14155641166,1641_20160812,8/12/16,84,1641_20160812_103144,Unapproved or unmaintained equipment or utensils,Low Risk
69282,New Jumbo Seafood Restaurant,1532 NORIEGA St,94122,37.754132,-122.480058,"(37.754132, -122.480058)",14155681800,69282_20160413,4/13/16,76,69282_20160413_103149,Wiping cloths not clean or properly stored or inadequate sanitizer,Low Risk
68716,The Sweet House,3512 BALBOA St,94121,37.775818,-122.496401,"(37.775818, -122.496401)",14155871388,68716_20180226,2/26/18,80,68716_20180226_103129,Insufficient hot water or running water,Moderate Risk
3649,SAFEWAY #1490,2300 16th St,94103,37.765708,-122.409002,"(37.765708, -122.409002)",14155571120,3649_20171206,12/6/17,82,3649_20171206_103102,Unclean hands or improper use of gloves,High Risk
62064,California Grocery,123 Eddy St,94102,37.784303,-122.409647,"(37.784303, -122.409647)",14155448608,62064_20160411,4/11/16,75,62064_20160411_103154,Unclean or degraded floors walls or ceilings,Low Risk
3920,BOSTON MARKET,2300 16th St,94103,37.765708,-122.409002,"(37.765708, -122.409002)",14155867666,3920_20160516,5/16/16,88,3920_20160516_103154,Unclean or degraded floors walls or ceilings,Low Risk
3839,EL TORO TAQUERIA,598 VALENCIA St,94110,37.763458,-122.421784,"(37.763458, -122.421784)",14155433351,3839_20160815,8/15/16,87,3839_20160815_103133,Foods not protected from contamination,Moderate Risk
5118,KFC,1150 TARAVAL St,94116,37.742948,-122.478732,"(37.742948, -122.478732)",14155733314,5118_20161207,12/7/16,98,5118_20161207_103154,Unclean or degraded floors walls or ceilings,Low Risk
1005,CHAVITA'S MEXICAN RESTAURANT,3006 MISSION St,94110,37.748855,-122.418134,"(37.748855, -122.418134)",14155286927,1005_20160502,5/2/16,84,1005_20160502_103154,Unclean or degraded floors walls or ceilings,Low Risk
5033,DESTINATION BAKING COMPANY,598 Chenery St,94131,37.734619,-122.432379,"(37.734619, -122.432379)",14155460730,5033_20170104,1/4/17,86,5033_20170104_103142,Unclean nonfood contact surfaces,Low Risk
65086,Bun Mee,2015 FILLMORE St,94115,37.788193,-122.433714,"(37.788193, -122.433714)",14155807696,65086_20180905,9/5/18,88,65086_20180905_103131,Moderate risk vermin infestation,Moderate Risk
69282,New Jumbo Seafood Restaurant,1532 NORIEGA St,94122,37.754132,-122.480058,"(37.754132, -122.480058)",14155681800,69282_20160413,4/13/16,76,69282_20160413_103105,Improper cooling methods,High Risk
4864,DRAGON CITY BAKERY & CAFE,2367 MISSION St,94110,37.759174,-122.419066,"(37.759174, -122.419066)",14155829718,4864_20161206,12/6/16,84,4864_20161206_103119,Inadequate and inaccessible handwashing facilities,Moderate Risk
62064,California Grocery,123 Eddy St,94102,37.784303,-122.409647,"(37.784303, -122.409647)",14155448608,62064_20160411,4/11/16,75,62064_20160411_103144,Unapproved or unmaintained equipment or utensils,Low Risk
3253,S F GOLF CLUB,1310 Junipero Serra Blvd,94132,37.711329,-122.471316,"(37.711329, -122.471316)",14155464100,3253_20160413,4/13/16,88,3253_20160413_103149,Wiping cloths not clean or properly stored or inadequate sanitizer,Low Risk
66536,Cypress Grill,99 Harding Park Rd,94132,37.723698,-122.495289,"(37.723698, -122.495289)",14155664690,66536_20160413,4/13/16,90,66536_20160413_103118,Employee eating or smoking,Moderate Risk
18826,Fresca Restaurant,2114 FILLMORE St,94115,37.789074,-122.433783,"(37.789074, -122.433783)",14155442668,18826_20160926,9/26/16,83,18826_20160926_103131,Moderate risk vermin infestation,Moderate Risk
2447,NEW CASTILLITO INC.,2092 MISSION St,94110,37.76356,-122.419582,"(37.76356, -122.419582)",14155626971,2447_20180911,9/11/18,89,2447_20180911_103124,Inadequately cleaned or sanitized food contact surfaces,Moderate Risk
70494,The Little Chihuahua Mexican Restaurant,581 VALENCIA St,94110,37.763664,-122.421736,"(37.763664, -122.421736)",14155207111,70494_20160216,2/16/16,92,70494_20160216_103133,Foods not protected from contamination,Moderate Risk
5958,ST. THOMAS THE APOSTLE,3801 BALBOA St,94121,37.775573,-122.499709,"(37.775573, -122.499709)",14155263257,5958_20160321,3/21/16,100,,,
64351,Fatted Calf SF,320 Fell St,94102,37.775918,-122.423134,"(37.775918, -122.423134)",14155405614,64351_20180724,7/24/18,100,,,
26149,Mrs. Fields Cookies,865 Market St 9000,94103,37.784317,-122.407563,"(37.784317, -122.407563)",14155971993,26149_20180516,5/16/18,92,26149_20180516_103119,Inadequate and inaccessible handwashing facilities,Moderate Risk
5999,The Salvation Army,1156 Valencia St,94110,37.754397,-122.420915,"(37.754397, -122.420915)",14155640260,5999_20180724,7/24/18,90,5999_20180724_103157,Food safety certificate or food handler card not available,Low Risk
5033,DESTINATION BAKING COMPANY,598 Chenery St,94131,37.734619,-122.432379,"(37.734619, -122.432379)",14155460730,5033_20170104,1/4/17,86,5033_20170104_103154,Unclean or degraded floors walls or ceilings,Low Risk
2497,PLUTO'S,3258 SCOTT St,94123,37.799796,-122.441041,"(37.799796, -122.441041)",14155778867,2497_20160607,6/7/16,85,2497_20160607_103108,Contaminated or adulterated food,High Risk
28044,Century Theatres,845 Market St Suite 500,94103,37.784848,-122.406892,"(37.784848, -122.406892)",14155538422,28044_20171212,12/12/17,98,28044_20171212_103154,Unclean or degraded floors walls or ceilings,Low Risk
1005,CHAVITA'S MEXICAN RESTAURANT,3006 MISSION St,94110,37.748855,-122.418134,"(37.748855, -122.418134)",14155286927,1005_20160502,5/2/16,84,1005_20160502_103149,Wiping cloths not clean or properly stored or inadequate sanitizer,Low Risk
13814,Go Go Market & Deli,99 09th St,94103,37.774722,-122.406761,"(37.774722, -122.406761)",14155863536,13814_20160930,9/30/16,82,13814_20160930_103116,Inadequate food safety knowledge or lack of certified food safety manager,Moderate Risk
5033,DESTINATION BAKING COMPANY,598 Chenery St,94131,37.734619,-122.432379,"(37.734619, -122.432379)",14155460730,5033_20170104,1/4/17,86,5033_20170104_103156,Permit license or inspection report not posted,Low Risk
5823,WEBSTER ELEMENTARY SCHOOL,465 MISSOURI St,94107,37.760474,-122.396296,"(37.760474, -122.396296)",14155695787,5823_20160322,3/22/16,92,5823_20160322_103116,Inadequate food safety knowledge or lack of certified food safety manager,Moderate Risk
37820,Natural Sensations,1650 HOLLOWAY St #134,94132,37.720894,-122.478029,"(37.720894, -122.478029)",14155238257,37820_20160509,5/9/16,96,37820_20160509_103120,Moderate risk food holding temperature,Moderate Risk
4864,DRAGON CITY BAKERY & CAFE,2367 MISSION St,94110,37.759174,-122.419066,"(37.759174, -122.419066)",14155829718,4864_20161206,12/6/16,84,4864_20161206_103161,Low risk vermin infestation,Low Risk
69792,Samiramis Imports,2990 MISSION St,94110,37.74923,-122.418224,"(37.74923, -122.418224)",14155826555,69792_20160412,4/12/16,88,69792_20160412_103119,Inadequate and inaccessible handwashing facilities,Moderate Risk
3869,SAFEWAY #739,3350 MISSION St,94110,37.742998,-122.421638,"(37.742998, -122.421638)",14155822866,3869_20180608,6/8/18,94,3869_20180608_103139,Improper food storage,Low Risk
300,SUBWAY,2001 VAN NESS Ave,94109,37.794134,-122.423234,"(37.794134, -122.423234)",14155779929,300_20171208,12/8/17,86,300_20171208_103143,Inadequate warewashing facilities or equipment,Low Risk
64380,Michael Mina Restaurant,252 California St,94111,37.793338,-122.399583,"(37.793338, -122.399583)",14155350791,64380_20160414,4/14/16,86,64380_20160414_103124,Inadequately cleaned or sanitized food contact surfaces,Moderate Risk
60544,Manzoni,2790 Diamond St,94131,37.73473,-122.433823,"(37.73473, -122.433823)",14155332251,60544_20160929,9/29/16,92,60544_20160929_103156,Permit license or inspection report not posted,Low Risk
7488,EUROPA EXPRESS,746-750 LA PLAYA St,94121,37.774248,-122.510043,"(37.774248, -122.510043)",14155644917,7488_20180209,2/9/18,94,7488_20180209_103161,Low risk vermin infestation,Low Risk
5033,DESTINATION BAKING COMPANY,598 Chenery St,94131,37.734619,-122.432379,"(37.734619, -122.432379)",14155460730,5033_20170104,1/4/17,86,5033_20170104_103120,Moderate risk food holding temperature,Moderate Risk
1764,FLORIO,1915 FILLMORE St,94115,37.787553,-122.433574,"(37.787553, -122.433574)",14155774300,1764_20160531,5/31/16,93,1764_20160531_103103,High risk food holding temperature,High Risk
4893,S & W MARKET,399 HAIGHT St,94102,37.772323,-122.428627,"(37.772323, -122.428627)",14155862346,4893_20171211,12/11/17,92,4893_20171211_103131,Moderate risk vermin infestation,Moderate Risk
1641,MARTHA & BROS. COFFEE CO,1551 Church St,94131,37.745974,-122.426856,"(37.745974, -122.426856)",14155641166,1641_20160812,8/12/16,84,1641_20160812_103116,Inadequate food safety knowledge or lack of certified food safety manager,Moderate Risk
4804,SUBWAY #31419,2599 SAN BRUNO Ave,94134,37.728933,-122.40413,"(37.728933, -122.40413)",14150540880,4804_20161206,12/6/16,86,4804_20161206_103119,Inadequate and inaccessible handwashing facilities,Moderate Risk
7755,ARIZMENDI BAKERY,1331 09th Ave,94122,37.763448,-122.466344,"(37.763448, -122.466344)",14155563117,7755_20180904,9/4/18,92,7755_20180904_103121,Inadequate procedures or records for time as a public health control,Moderate Risk
62064,California Grocery,123 Eddy St,94102,37.784303,-122.409647,"(37.784303, -122.409647)",14155448608,62064_20160411,4/11/16,75,62064_20160411_103145,Improper storage of equipment utensils or linens,Low Risk
1249,KABABAYAN FAST FOOD,2706 MISSION St,94110,37.753691,-122.418657,"(37.753691, -122.418657)",14155929635,1249_20180515,5/15/18,74,1249_20180515_103109,Unclean or unsanitary food contact surfaces,High Risk
4917,LA VICTORIA BAKERY,2937 24th St,94110,37.752373,-122.410876,"(37.752373, -122.410876)",14155647120,4917_20160906,9/6/16,78,4917_20160906_103119,Inadequate and inaccessible handwashing facilities,Moderate Risk
1641,MARTHA & BROS. COFFEE CO,1551 Church St,94131,37.745974,-122.426856,"(37.745974, -122.426856)",14155641166,1641_20160812,8/12/16,84,1641_20160812_103161,Low risk vermin infestation,Low Risk
774,BAY VIEW BOAT CLUB,429 Terry Francois St,94107,37.772667,-122.387032,"(37.772667, -122.387032)",14155567650,774_20161205,12/5/16,90,774_20161205_103177,Non service animal,Low Risk
3839,EL TORO TAQUERIA,598 VALENCIA St,94110,37.763458,-122.421784,"(37.763458, -122.421784)",14155433351,3839_20160815,8/15/16,87,3839_20160815_103103,High risk food holding temperature,High Risk
774,BAY VIEW BOAT CLUB,429 Terry Francois St,94107,37.772667,-122.387032,"(37.772667, -122.387032)",14155567650,774_20161205,12/5/16,90,774_20161205_103148,No thermometers or uncalibrated thermometers,Low Risk
4874,JUMP START COFFEE & GROCERY,1192 GUERRERO St,94110,37.752118,-122.422914,"(37.752118, -122.422914)",14155647555,4874_20160502,5/2/16,90,4874_20160502_103120,Moderate risk food holding temperature,Moderate Risk
63124,Marengo on Union,1980 Union St Upper Street Level,94123,37.797578,-122.431883,"(37.797578, -122.431883)",14155442575,63124_20160929,9/29/16,94,63124_20160929_103149,Wiping cloths not clean or properly stored or inadequate sanitizer,Low Risk
1734,SAI JAI THAI,771 O'FARRELL St,94109,37.785182,-122.417409,"(37.785182, -122.417409)",14155675774,1734_20160311,3/11/16,82,1734_20160311_103120,Moderate risk food holding temperature,Moderate Risk
63082,The Brick Yard,1787 Union St,94123,37.797933,-122.428627,"(37.797933, -122.428627)",14156677676,63082_20180222,2/22/18,87,63082_20180222_103152,Unclean unmaintained or improperly constructed toilet facilities,Low Risk
4917,LA VICTORIA BAKERY,2937 24th St,94110,37.752373,-122.410876,"(37.752373, -122.410876)",14155647120,4917_20160906,9/6/16,78,4917_20160906_103133,Foods not protected from contamination,Moderate Risk
5011,STARBUCKS COFFEE CO,1231 MARKET St,94103,37.778357,-122.415182,"(37.778357, -122.415182)",14155521438,5011_20180515,5/15/18,96,5011_20180515_103119,Inadequate and inaccessible handwashing facilities,Moderate Risk
4907,JIM GEORGIE'S DONUT,2799 16th St,94103,37.765262,-122.41523,"(37.765262, -122.41523)",14155867112,4907_20170105,1/5/17,80,4907_20170105_103145,Improper storage of equipment utensils or linens,Low Risk
71909,Shanghai Dumpling King 2,696 Monterey Blvd,94127,37.731568,-122.45097,"(37.731568, -122.45097)",14155232380,71909_20171213,12/13/17,92,71909_20171213_103154,Unclean or degraded floors walls or ceilings,Low Risk
5952,IMMACULATE CONCPTION ACADEMY,3625 24th St,94110,37.751923,-122.423558,"(37.751923, -122.423558)",14155822052,5952_20180226,2/26/18,98,5952_20180226_103144,Unapproved or unmaintained equipment or utensils,Low Risk
2369,CLOONEY'S,1401 Valencia St,94110,37.750374,-122.420456,"(37.750374, -122.420456)",14155824988,2369_20160324,3/24/16,86,2369_20160324_103149,Wiping cloths not clean or properly stored or inadequate sanitizer,Low Risk
71356,Padrecito,901 Cole St,94117,37.765644,-122.449974,"(37.765644, -122.449974)",14155502083,71356_20170606,6/6/17,87,71356_20170606_103102,Unclean hands or improper use of gloves,High Risk
4685,NORMAN'S LIQUOR & DELI,733 Randolph St,94132,37.714204,-122.469193,"(37.714204, -122.469193)",14155580088,4685_20160329,3/29/16,94,4685_20160329_103152,Unclean unmaintained or improperly constructed toilet facilities,Low Risk
4874,JUMP START COFFEE & GROCERY,1192 GUERRERO St,94110,37.752118,-122.422914,"(37.752118, -122.422914)",14155647555,4874_20160502,5/2/16,90,4874_20160502_103131,Moderate risk vermin infestation,Moderate Risk
7517,Discount Grocers,1203 Polk St,94109,37.787924,-122.420164,"(37.787924, -122.420164)",14155927385,7517_20171211,12/11/17,100,,,
5815,ALVARADO ELEMENTARY SCHOOL,625  DOUGLASS St,94114,37.753684,-122.438696,"(37.753684, -122.438696)",14155695695,5815_20170928,9/28/17,96,5815_20170928_103124,Inadequately cleaned or sanitized food contact surfaces,Moderate Risk
2497,PLUTO'S,3258 SCOTT St,94123,37.799796,-122.441041,"(37.799796, -122.441041)",14155778867,2497_20160607,6/7/16,85,2497_20160607_103150,Improper or defective plumbing,Low Risk
32671,La Taqueria Guadalajara,3146 24th St,94110,37.752512,-122.415109,"(37.752512, -122.415109)",14155644892,32671_20180508,5/8/18,75,32671_20180508_103120,Moderate risk food holding temperature,Moderate Risk
7527,DON CHUYS MEXI-MERCADO,544 EXCELSIOR Ave,94112,37.724122,-122.429309,"(37.724122, -122.429309)",14155588092,7527_20160812,8/12/16,96,7527_20160812_103120,Moderate risk food holding temperature,Moderate Risk
5925,ARCHBISHOP RIORDAN HIGH SCHOOL CAFE,175 PHELAN,94112,37.727337,-122.45245,"(37.727337, -122.45245)",14155588200,5925_20180223,2/23/18,90,5925_20180223_103119,Inadequate and inaccessible handwashing facilities,Moderate Risk
3649,SAFEWAY #1490,2300 16th St,94103,37.765708,-122.409002,"(37.765708, -122.409002)",14155571120,3649_20171206,12/6/17,82,3649_20171206_103103,High risk food holding temperature,High Risk
5877,CLAIRE LILIENTHAL SCHOOL-MADISON CA,3950 SACRAMENTO St,94118,37.786808,-122.458014,"(37.786808, -122.458014)",14155758603,5877_20160411,4/11/16,94,5877_20160411_103149,Wiping cloths not clean or properly stored or inadequate sanitizer,Low Risk
3839,EL TORO TAQUERIA,598 VALENCIA St,94110,37.763458,-122.421784,"(37.763458, -122.421784)",14155433351,3839_20160815,8/15/16,87,3839_20160815_103157,Food safety certificate or food handler card not available,Low Risk
4787,TONY BALONEY'S,1098 HOWARD St,94103,37.778033,-122.40943,"(37.778033, -122.40943)",14155861514,4787_20160628,6/28/16,83,4787_20160628_103154,Unclean or degraded floors walls or ceilings,Low Risk
1641,MARTHA & BROS. COFFEE CO,1551 Church St,94131,37.745974,-122.426856,"(37.745974, -122.426856)",14155641166,1641_20160812,8/12/16,84,1641_20160812_103154,Unclean or degraded floors walls or ceilings,Low Risk
5852,CARVER ELEMENTARY SCHOOL,1360 OAKDALE Ave,94124,37.732408,-122.386391,"(37.732408, -122.386391)",14155331540,5852_20160906,9/6/16,96,5852_20160906_103124,Inadequately cleaned or sanitized food contact surfaces,Moderate Risk
2421,ST FRANCIS FOUNTAIN,2801 24th St,94110,37.752833,-122.408349,"(37.752833, -122.408349)",14155824200,2421_20160120,1/20/16,85,2421_20160120_103142,Unclean nonfood contact surfaces,Low Risk
4917,LA VICTORIA BAKERY,2937 24th St,94110,37.752373,-122.410876,"(37.752373, -122.410876)",14155647120,4917_20160906,9/6/16,78,4917_20160906_103144,Unapproved or unmaintained equipment or utensils,Low Risk
3649,SAFEWAY #1490,2300 16th St,94103,37.765708,-122.409002,"(37.765708, -122.409002)",14155571120,3649_20171206,12/6/17,82,3649_20171206_103131,Moderate risk vermin infestation,Moderate Risk
3920,BOSTON MARKET,2300 16th St,94103,37.765708,-122.409002,"(37.765708, -122.409002)",14155867666,3920_20160516,5/16/16,88,3920_20160516_103131,Moderate risk vermin infestation,Moderate Risk
5821,MOSCONE ELEMENTARY SCHOOL,2576 HARRISON St,94110,37.756231,-122.412293,"(37.756231, -122.412293)",14155695736,5821_20180227,2/27/18,100,,,
5815,ALVARADO ELEMENTARY SCHOOL,625  DOUGLASS St,94114,37.753684,-122.438696,"(37.753684, -122.438696)",14155695695,5815_20160503,5/3/16,90,5815_20160503_103120,Moderate risk food holding temperature,Moderate Risk
5866,KING ELEMENTARY SCHOOL,1215 CAROLINA St,94107,37.753196,-122.39939,"(37.753196, -122.39939)",14155695797,5866_20180227,2/27/18,96,5866_20180227_103116,Inadequate food safety knowledge or lack of certified food safety manager,Moderate Risk
64805,Andersen Bread,1390 Market St Suite 110,94102,37.777053,-122.416939,"(37.777053, -122.416939)",14150427100,64805_20170105,1/5/17,94,64805_20170105_103161,Low risk vermin infestation,Low Risk
4479,Courtney's Produce II,101 CASTRO St,94114,37.767194,-122.435576,"(37.767194, -122.435576)",14155621850,4479_20170105,1/5/17,92,4479_20170105_103124,Inadequately cleaned or sanitized food contact surfaces,Moderate Risk
1249,KABABAYAN FAST FOOD,2706 MISSION St,94110,37.753691,-122.418657,"(37.753691, -122.418657)",14155929635,1249_20180515,5/15/18,74,1249_20180515_103116,Inadequate food safety knowledge or lack of certified food safety manager,Moderate Risk
1641,MARTHA & BROS. COFFEE CO,1551 Church St,94131,37.745974,-122.426856,"(37.745974, -122.426856)",14155641166,1641_20160812,8/12/16,84,1641_20160812_103118,Employee eating or smoking,Moderate Risk
300,SUBWAY,2001 VAN NESS Ave,94109,37.794134,-122.423234,"(37.794134, -122.423234)",14155779929,300_20160413,4/13/16,68,300_20160413_103133,Foods not protected from contamination,Moderate Risk
5867,MALCOLM X ELEMENTARY SCHOOL,350 Harbor Rd,94124,37.733741,-122.380619,"(37.733741, -122.380619)",14155695950,5867_20160323,3/23/16,100,,,
4481,Bi Rite Market,3639 18th St,94110,37.761483,-122.424688,"(37.761483, -122.424688)",14155249760,4481_20180913,9/13/18,89,4481_20180913_103105,Improper cooling methods,High Risk
69181,Cha-Ya Restaurant,762 Valencia St,94110,37.760777,-122.421505,"(37.760777, -122.421505)",14155257825,69181_20160330,3/30/16,92,69181_20160330_103149,Wiping cloths not clean or properly stored or inadequate sanitizer,Low Risk
63618,Contraband Coffee LLC,1415 Larkin St,94109,37.790933,-122.41914,"(37.790933, -122.41914)",14155221520,63618_20160328,3/28/16,96,63618_20160328_103149,Wiping cloths not clean or properly stored or inadequate sanitizer,Low Risk
64379,Piccadilly Fish & Chips,1348 Polk St,94109,37.789299,-122.420352,"(37.789299, -122.420352)",14155776477,64379_20180911,9/11/18,92,64379_20180911_103154,Unclean or degraded floors walls or ceilings,Low Risk
773,MARIPOSA HUNTERS POINT YACHT CLUB,405 TERRY FRANCOIS Blvd,94107,37.77325,-122.387222,"(37.77325, -122.387222)",14155789296,773_20161205,12/5/16,96,773_20161205_103144,Unapproved or unmaintained equipment or utensils,Low Risk
4797,"Good Life Grocery, The",448 CORTLAND Ave,94110,37.739053,-122.416683,"(37.739053, -122.416683)",14155643221,4797_20171130,11/30/17,86,4797_20171130_103120,Moderate risk food holding temperature,Moderate Risk
4643,CHEUNG HING CHINESE DELI & MEAT INC,323 Clement St,94118,37.782993,-122.462709,"(37.782993, -122.462709)",14155754259,4643_20160512,5/12/16,67,4643_20160512_103139,Improper food storage,Low Risk
1339,HIGHER GROUNDS,691 CHENERY St,94131,37.734483,-122.43368,"(37.734483, -122.43368)",14155582933,1339_20160414,4/14/16,90,1339_20160414_103120,Moderate risk food holding temperature,Moderate Risk
10030,Marshall Elementary School,1575 15th St,94103,37.766864,-122.419014,"(37.766864, -122.419014)",14155246280,10030_20170928,9/28/17,93,10030_20170928_103103,High risk food holding temperature,High Risk
903,Sabra Restaurant,419 Grant Ave,94108,37.790874,-122.405634,"(37.790874, -122.405634)",14155983656,903_20171211,12/11/17,91,903_20171211_103144,Unapproved or unmaintained equipment or utensils,Low Risk
5634,AT&T - COMMISARY KITCHEN [145184],24 WILLIE MAYS PLAZA 1.24.06,94107,37.778382,-122.391151,"(37.778382, -122.391151)",14155971500,5634_20160814,8/14/16,98,5634_20160814_103144,Unapproved or unmaintained equipment or utensils,Low Risk
13814,Go Go Market & Deli,99 09th St,94103,37.774722,-122.406761,"(37.774722, -122.406761)",14155863536,13814_20160930,9/30/16,82,13814_20160930_103131,Moderate risk vermin infestation,Moderate Risk
4787,TONY BALONEY'S,1098 HOWARD St,94103,37.778033,-122.40943,"(37.778033, -122.40943)",14155861514,4787_20160628,6/28/16,83,4787_20160628_103156,Permit license or inspection report not posted,Low Risk
5908,SHERMAN ELEMENTARY SCHOOL,1651 UNION St,94123,37.798243,-122.426167,"(37.798243, -122.426167)",14155743530,5908_20160325,3/25/16,96,5908_20160325_103144,Unapproved or unmaintained equipment or utensils,Low Risk
5905,MARINA MIDDLE SCHOOL,3500 FILLMORE St,94123,37.801776,-122.43641,"(37.801776, -122.43641)",14155743495,5905_20180215,2/15/18,96,5905_20180215_103147,Inadequate ventilation or lighting,Low Risk
300,SUBWAY,2001 VAN NESS Ave,94109,37.794134,-122.423234,"(37.794134, -122.423234)",14155779929,300_20160413,4/13/16,68,300_20160413_103116,Inadequate food safety knowledge or lack of certified food safety manager,Moderate Risk
1339,HIGHER GROUNDS,691 CHENERY St,94131,37.734483,-122.43368,"(37.734483, -122.43368)",14155582933,1339_20160414,4/14/16,90,1339_20160414_103154,Unclean or degraded floors walls or ceilings,Low Risk
4479,Courtney's Produce II,101 CASTRO St,94114,37.767194,-122.435576,"(37.767194, -122.435576)",14155621850,4479_20170105,1/5/17,92,4479_20170105_103157,Food safety certificate or food handler card not available,Low Risk
69769,Whole Foods Market,1150 Ocean Ave,94112,37.723652,-122.45461,"(37.723652, -122.45461)",14155337400,69769_20180725,7/25/18,90,69769_20180725_103161,Low risk vermin infestation,Low Risk
68716,The Sweet House,3512 BALBOA St,94121,37.775818,-122.496401,"(37.775818, -122.496401)",14155871388,68716_20180226,2/26/18,80,68716_20180226_103102,Unclean hands or improper use of gloves,High Risk
18826,Fresca Restaurant,2114 FILLMORE St,94115,37.789074,-122.433783,"(37.789074, -122.433783)",14155442668,18826_20160926,9/26/16,83,18826_20160926_103154,Unclean or degraded floors walls or ceilings,Low Risk
4804,SUBWAY #31419,2599 SAN BRUNO Ave,94134,37.728933,-122.40413,"(37.728933, -122.40413)",14150540880,4804_20161206,12/6/16,86,4804_20161206_103116,Inadequate food safety knowledge or lack of certified food safety manager,Moderate Risk
5867,MALCOLM X ELEMENTARY SCHOOL,350 Harbor Rd,94124,37.733741,-122.380619,"(37.733741, -122.380619)",14155695950,5867_20180223,2/23/18,100,,,
4801,YICK'S LIQUOR,4701 MISSION St,94112,37.72304,-122.436017,"(37.72304, -122.436017)",14155582662,4801_20161110,11/10/16,94,4801_20161110_103139,Improper food storage,Low Risk
4917,LA VICTORIA BAKERY,2937 24th St,94110,37.752373,-122.410876,"(37.752373, -122.410876)",14155647120,4917_20160906,9/6/16,78,4917_20160906_103150,Improper or defective plumbing,Low Risk
5854,Gateway High/Kip Schools,1430 Scott St,94115,37.783427,-122.437747,"(37.783427, -122.437747)",14155743600,5854_20180227,2/27/18,98,5854_20180227_103144,Unapproved or unmaintained equipment or utensils,Low Risk
32586,Terroir,81 Langton St,94103,37.776494,-122.408562,"(37.776494, -122.408562)",14155718949,32586_20160906,9/6/16,96,32586_20160906_103156,Permit license or inspection report not posted,Low Risk
2357,CHINA EXPRESS,2798 MISSION St,94110,37.752408,-122.418535,"(37.752408, -122.418535)",14155640881,2357_20180723,7/23/18,81,2357_20180723_103142,Unclean nonfood contact surfaces,Low Risk
59838,OTD,2232 Bush St,94115,37.786988,-122.434074,"(37.786988, -122.434074)",14155929578,59838_20180723,7/23/18,80,59838_20180723_103144,Unapproved or unmaintained equipment or utensils,Low Risk
1339,HIGHER GROUNDS,691 CHENERY St,94131,37.734483,-122.43368,"(37.734483, -122.43368)",14155582933,1339_20160414,4/14/16,90,1339_20160414_103144,Unapproved or unmaintained equipment or utensils,Low Risk
4643,CHEUNG HING CHINESE DELI & MEAT INC,323 Clement St,94118,37.782993,-122.462709,"(37.782993, -122.462709)",14155754259,4643_20160512,5/12/16,67,4643_20160512_103131,Moderate risk vermin infestation,Moderate Risk
3920,BOSTON MARKET,2300 16th St,94103,37.765708,-122.409002,"(37.765708, -122.409002)",14155867666,3920_20160516,5/16/16,88,3920_20160516_103149,Wiping cloths not clean or properly stored or inadequate sanitizer,Low Risk
62308,Sam's Diner,1220 Market Street,94102,37.778497,-122.415146,"(37.778497, -122.415146)",14155628590,62308_20160203,2/3/16,72,62308_20160203_103102,Unclean hands or improper use of gloves,High Risk
5815,ALVARADO ELEMENTARY SCHOOL,625  DOUGLASS St,94114,37.753684,-122.438696,"(37.753684, -122.438696)",14155695695,5815_20160503,5/3/16,90,5815_20160503_103121,Inadequate procedures or records for time as a public health control,Moderate Risk
300,SUBWAY,2001 VAN NESS Ave,94109,37.794134,-122.423234,"(37.794134, -122.423234)",14155779929,300_20160413,4/13/16,68,300_20160413_103149,Wiping cloths not clean or properly stored or inadequate sanitizer,Low Risk
2638,SF BAGEL CO. (KATZ BAGELS),3147 16th St,94103,37.764814,-122.423089,"(37.764814, -122.423089)",14155559050,2638_20180830,8/30/18,86,2638_20180830_103133,Foods not protected from contamination,Moderate Risk
7361,PastaGina,741 Diamond St,94114,37.751403,-122.436286,"(37.751403, -122.436286)",14155280738,7361_20160503,5/3/16,86,7361_20160503_103149,Wiping cloths not clean or properly stored or inadequate sanitizer,Low Risk
773,MARIPOSA HUNTERS POINT YACHT CLUB,405 TERRY FRANCOIS Blvd,94107,37.77325,-122.387222,"(37.77325, -122.387222)",14155789296,773_20161205,12/5/16,96,773_20161205_103154,Unclean or degraded floors walls or ceilings,Low Risk
71909,Shanghai Dumpling King 2,696 Monterey Blvd,94127,37.731568,-122.45097,"(37.731568, -122.45097)",14155232380,71909_20171213,12/13/17,92,71909_20171213_103147,Inadequate ventilation or lighting,Low Risk
5926,"SAN FRANCISCO SCHOOL, THE",300 GAVEN St,94134,37.732518,-122.411648,"(37.732518, -122.411648)",14155235065,5926_20180223,2/23/18,96,5926_20180223_103133,Foods not protected from contamination,Moderate Risk
13814,Go Go Market & Deli,99 09th St,94103,37.774722,-122.406761,"(37.774722, -122.406761)",14155863536,13814_20160930,9/30/16,82,13814_20160930_103154,Unclean or degraded floors walls or ceilings,Low Risk
3920,BOSTON MARKET,2300 16th St,94103,37.765708,-122.409002,"(37.765708, -122.409002)",14155867666,3920_20160516,5/16/16,88,3920_20160516_103119,Inadequate and inaccessible handwashing facilities,Moderate Risk
19416,Starbucks,865 Market St C26,94103,37.784317,-122.407563,"(37.784317, -122.407563)",14155604908,19416_20160629,6/29/16,94,19416_20160629_103154,Unclean or degraded floors walls or ceilings,Low Risk
4794,VICTOR'S,210 TOWNSEND St,94107,37.778634,-122.393089,"(37.778634, -122.393089)",14155607018,4794_20170105,1/5/17,90,4794_20170105_103124,Inadequately cleaned or sanitized food contact surfaces,Moderate Risk
5815,ALVARADO ELEMENTARY SCHOOL,625  DOUGLASS St,94114,37.753684,-122.438696,"(37.753684, -122.438696)",14155695695,5815_20160503,5/3/16,90,5815_20160503_103161,Low risk vermin infestation,Low Risk
59009,Woodhouse Fish Co.,1914 FILLMORE St,94116,37.787386,-122.433476,"(37.787386, -122.433476)",14155432722,59009_20160926,9/26/16,92,59009_20160926_103131,Moderate risk vermin infestation,Moderate Risk
65086,Bun Mee,2015 FILLMORE St,94115,37.788193,-122.433714,"(37.788193, -122.433714)",14155807696,65086_20180905,9/5/18,88,65086_20180905_103144,Unapproved or unmaintained equipment or utensils,Low Risk
2352,SMILE'S  B.B.Q.,2619 MISSION St,94110,37.755013,-122.418665,"(37.755013, -122.418665)",14155281596,2352_20180719,7/19/18,90,2352_20180719_103142,Unclean nonfood contact surfaces,Low Risk
4917,LA VICTORIA BAKERY,2937 24th St,94110,37.752373,-122.410876,"(37.752373, -122.410876)",14155647120,4917_20160906,9/6/16,78,4917_20160906_103131,Moderate risk vermin infestation,Moderate Risk
19416,Starbucks,865 Market St C26,94103,37.784317,-122.407563,"(37.784317, -122.407563)",14155604908,19416_20180718,7/18/18,96,19416_20180718_103153,Inadequate dressing rooms or improper storage of personal items,Low Risk
33160,Mission Bay Cafe,550 Terry Francois St,94158,37.770518,-122.386525,"(37.770518, -122.386525)",14155831002,33160_20161205,12/5/16,94,33160_20161205_103120,Moderate risk food holding temperature,Moderate Risk
557,KATIA'S,600 05th Ave,94118,37.77721,-122.462874,"(37.77721, -122.462874)",14155669292,557_20160629,6/29/16,85,557_20160629_103136,Unsanitary employee garments hair or nails,Low Risk
5033,DESTINATION BAKING COMPANY,598 Chenery St,94131,37.734619,-122.432379,"(37.734619, -122.432379)",14155460730,5033_20160414,4/14/16,94,5033_20160414_103144,Unapproved or unmaintained equipment or utensils,Low Risk
5812,Zaida T. Rodriguez (ZTR) Annex Child Development Center,421  BARTLETT St,94110,37.750243,-122.419293,"(37.750243, -122.419293)",14155695844,5812_20180223,2/23/18,98,5812_20180223_103161,Low risk vermin infestation,Low Risk
2357,CHINA EXPRESS,2798 MISSION St,94110,37.752408,-122.418535,"(37.752408, -122.418535)",14155640881,2357_20180723,7/23/18,81,2357_20180723_103118,Employee eating or smoking,Moderate Risk
300,SUBWAY,2001 VAN NESS Ave,94109,37.794134,-122.423234,"(37.794134, -122.423234)",14155779929,300_20160413,4/13/16,68,300_20160413_103108,Contaminated or adulterated food,High Risk
4907,JIM GEORGIE'S DONUT,2799 16th St,94103,37.765262,-122.41523,"(37.765262, -122.41523)",14155867112,4907_20170105,1/5/17,80,4907_20170105_103144,Unapproved or unmaintained equipment or utensils,Low Risk
5033,DESTINATION BAKING COMPANY,598 Chenery St,94131,37.734619,-122.432379,"(37.734619, -122.432379)",14155460730,5033_20170104,1/4/17,86,5033_20170104_103157,Food safety certificate or food handler card not available,Low Risk
1778,Academy Bar & Kitchen,1800 Fillmore St,94115,37.786498,-122.430283,"(37.786498, -122.430283)",14155771800,1778_20171213,12/13/17,94,1778_20171213_103144,Unapproved or unmaintained equipment or utensils,Low Risk
10030,Marshall Elementary School,1575 15th St,94103,37.766864,-122.419014,"(37.766864, -122.419014)",14155246280,10030_20180226,2/26/18,100,,,
187,TAZA WRAPS & JUICE,"750 FONT, BLDG B Blvd",94132,37.723054,-122.483612,"(37.723054, -122.483612)",14155374525,187_20160511,5/11/16,89,187_20160511_103107,Improper reheating of food,High Risk
1734,SAI JAI THAI,771 O'FARRELL St,94109,37.785182,-122.417409,"(37.785182, -122.417409)",14155675774,1734_20160311,3/11/16,82,1734_20160311_103119,Inadequate and inaccessible handwashing facilities,Moderate Risk
5219,SALVATION ARMY GATEWAY,407 09th St,94103,37.772473,-122.409879,"(37.772473, -122.409879)",14155256100,5219_20180511,5/11/18,94,5219_20180511_103131,Moderate risk vermin infestation,Moderate Risk
4643,CHEUNG HING CHINESE DELI & MEAT INC,323 Clement St,94118,37.782993,-122.462709,"(37.782993, -122.462709)",14155754259,4643_20160512,5/12/16,67,4643_20160512_103109,Unclean or unsanitary food contact surfaces,High Risk
3228,THANH LONG RESTAURANT,4101 JUDAH St,94122,37.760383,-122.50609,"(37.760383, -122.50609)",14155257984,3228_20160330,3/30/16,92,3228_20160330_103133,Foods not protected from contamination,Moderate Risk
557,KATIA'S,600 05th Ave,94118,37.77721,-122.462874,"(37.77721, -122.462874)",14155669292,557_20160629,6/29/16,85,557_20160629_103144,Unapproved or unmaintained equipment or utensils,Low Risk
5794,LINCOLN HIGH SCHOOL,2162 24th Ave,94116,37.747228,-122.481299,"(37.747228, -122.481299)",14155752700,5794_20160907,9/7/16,96,5794_20160907_103144,Unapproved or unmaintained equipment or utensils,Low Risk
4907,JIM GEORGIE'S DONUT,2799 16th St,94103,37.765262,-122.41523,"(37.765262, -122.41523)",14155867112,4907_20170105,1/5/17,80,4907_20170105_103149,Wiping cloths not clean or properly stored or inadequate sanitizer,Low Risk
2555,EXTREME PIZZA,1980 UNION St,94123,37.797578,-122.431883,"(37.797578, -122.431883)",14155928234,2555_20160929,9/29/16,96,2555_20160929_103144,Unapproved or unmaintained equipment or utensils,Low Risk
62179,Pampanguena Cuisine,4441 Mission St,94112,37.727111,-122.432926,"(37.727111, -122.432926)",14155588899,62179_20160629,6/29/16,92,62179_20160629_103133,Foods not protected from contamination,Moderate Risk
1734,SAI JAI THAI,771 O'FARRELL St,94109,37.785182,-122.417409,"(37.785182, -122.417409)",14155675774,1734_20160311,3/11/16,82,1734_20160311_103145,Improper storage of equipment utensils or linens,Low Risk
2555,EXTREME PIZZA,1980 UNION St,94123,37.797578,-122.431883,"(37.797578, -122.431883)",14155928234,2555_20160929,9/29/16,96,2555_20160929_103149,Wiping cloths not clean or properly stored or inadequate sanitizer,Low Risk
71356,Padrecito,901 Cole St,94117,37.765644,-122.449974,"(37.765644, -122.449974)",14155502083,71356_20170606,6/6/17,87,71356_20170606_103124,Inadequately cleaned or sanitized food contact surfaces,Moderate Risk
65724,Le Meridien SF Main Kitchen/Employee Cafeteria,333 Battery St Level A & B,94111,37.799005,-122.399862,"(37.799005, -122.399862)",14155292904,65724_20161108,11/8/16,96,65724_20161108_103127,Noncompliance with HAACP plan or variance,Moderate Risk
5808,BALBOA HIGH SCHOOL,1000 CAYUGA Ave,94112,37.722067,-122.43983,"(37.722067, -122.43983)",14155464090,5808_20160908,9/8/16,98,5808_20160908_103153,Inadequate dressing rooms or improper storage of personal items,Low Risk
774,BAY VIEW BOAT CLUB,429 Terry Francois St,94107,37.772667,-122.387032,"(37.772667, -122.387032)",14155567650,774_20161205,12/5/16,90,774_20161205_103154,Unclean or degraded floors walls or ceilings,Low Risk
4907,JIM GEORGIE'S DONUT,2799 16th St,94103,37.765262,-122.41523,"(37.765262, -122.41523)",14155867112,4907_20170105,1/5/17,80,4907_20170105_103132,Improper thawing methods,Moderate Risk
4884,LUCCA RAVIOLI CO,1100 VALENCIA St,94110,37.755177,-122.420995,"(37.755177, -122.420995)",14155645581,4884_20171211,12/11/17,98,4884_20171211_103161,Low risk vermin infestation,Low Risk
63493,The Golden West,8 Trinity Pl,94104,37.790053,-122.402586,"(37.790053, -122.402586)",14155270896,63493_20151222,12/22/15,83,63493_20151222_103154,Unclean or degraded floors walls or ceilings,Low Risk
38530,Portico IV,550 Market St,94104,37.789804,-122.40077,"(37.789804, -122.40077)",14155399994,38530_20160512,5/12/16,85,38530_20160512_103154,Unclean or degraded floors walls or ceilings,Low Risk
7361,PastaGina,741 Diamond St,94114,37.751403,-122.436286,"(37.751403, -122.436286)",14155280738,7361_20160503,5/3/16,86,7361_20160503_103157,Food safety certificate or food handler card not available,Low Risk
2447,NEW CASTILLITO INC.,2092 MISSION St,94110,37.76356,-122.419582,"(37.76356, -122.419582)",14155626971,2447_20180911,9/11/18,89,2447_20180911_103105,Improper cooling methods,High Risk
4907,JIM GEORGIE'S DONUT,2799 16th St,94103,37.765262,-122.41523,"(37.765262, -122.41523)",14155867112,4907_20170105,1/5/17,80,4907_20170105_103154,Unclean or degraded floors walls or ceilings,Low Risk
5033,DESTINATION BAKING COMPANY,598 Chenery St,94131,37.734619,-122.432379,"(37.734619, -122.432379)",14155460730,5033_20160414,4/14/16,94,5033_20160414_103157,Food safety certificate or food handler card not available,Low Risk
18826,Fresca Restaurant,2114 FILLMORE St,94115,37.789074,-122.433783,"(37.789074, -122.433783)",14155442668,18826_20160926,9/26/16,83,18826_20160926_103103,High risk food holding temperature,High Risk
4864,DRAGON CITY BAKERY & CAFE,2367 MISSION St,94110,37.759174,-122.419066,"(37.759174, -122.419066)",14155829718,4864_20161206,12/6/16,84,4864_20161206_103133,Foods not protected from contamination,Moderate Risk
64524,Fresca Restaurant,737 IRVING St,94122,37.764033,-122.4659,"(37.764033, -122.4659)",14155745727,64524_20160630,6/30/16,96,64524_20160630_103145,Improper storage of equipment utensils or linens,Low Risk
4480,STARBUCKS COFFEE #545,3995 24th St,94114,37.751413,-122.431629,"(37.751413, -122.431629)",14155821118,4480_20161205,12/5/16,100,,,
59002,Yummy Bakery & Restaurant,607 Jackson St,94133,37.796152,-122.405255,"(37.796152, -122.405255)",14155988388,59002_20180515,5/15/18,92,59002_20180515_103139,Improper food storage,Low Risk
5847,John Muir Elementary School,380 Webster St,94117,37.774046,-122.429076,"(37.774046, -122.429076)",14155246335,5847_20160309,3/9/16,92,5847_20160309_103119,Inadequate and inaccessible handwashing facilities,Moderate Risk
4797,"Good Life Grocery, The",448 CORTLAND Ave,94110,37.739053,-122.416683,"(37.739053, -122.416683)",14155643221,4797_20171130,11/30/17,86,4797_20171130_103139,Improper food storage,Low Risk
3869,SAFEWAY #739,3350 MISSION St,94110,37.742998,-122.421638,"(37.742998, -122.421638)",14155822866,3869_20180608,6/8/18,94,3869_20180608_103150,Improper or defective plumbing,Low Risk
300,SUBWAY,2001 VAN NESS Ave,94109,37.794134,-122.423234,"(37.794134, -122.423234)",14155779929,300_20160413,4/13/16,68,300_20160413_103119,Inadequate and inaccessible handwashing facilities,Moderate Risk
2724,HUNAN EMPIRE,2001 Union St #107,94123,37.797443,-122.432537,"(37.797443, -122.432537)",14155774735,2724_20160929,9/29/16,92,2724_20160929_103120,Moderate risk food holding temperature,Moderate Risk
37651,Jack In The Box #545,400 Geary St,94102,37.787168,-122.410124,"(37.787168, -122.410124)",14155670868,37651_20161114,11/14/16,87,37651_20161114_103144,Unapproved or unmaintained equipment or utensils,Low Risk
71532,Xpresso Tea,6901 Geary Blvd,94121,37.779663,-122.493618,"(37.779663, -122.493618)",14155277367,71532_20160330,3/30/16,96,71532_20160330_103154,Unclean or degraded floors walls or ceilings,Low Risk
19416,Starbucks,865 Market St C26,94103,37.784317,-122.407563,"(37.784317, -122.407563)",14155604908,19416_20160629,6/29/16,94,19416_20160629_103156,Permit license or inspection report not posted,Low Risk
5607,SFSU STATION CAFE,1600 Holloway Ave,94132,37.720851,-122.477084,"(37.720851, -122.477084)",14155374525,5607_20171128,11/28/17,87,5607_20171128_103119,Inadequate and inaccessible handwashing facilities,Moderate Risk
4797,"Good Life Grocery, The",448 CORTLAND Ave,94110,37.739053,-122.416683,"(37.739053, -122.416683)",14155643221,4797_20171130,11/30/17,86,4797_20171130_103131,Moderate risk vermin infestation,Moderate Risk
2542,PETER D'S RESTAURANT,2201 Van Ness St,94109,37.795993,-122.423585,"(37.795993, -122.423585)",14155778505,2542_20171208,12/8/17,65,2542_20171208_103103,High risk food holding temperature,High Risk
4907,JIM GEORGIE'S DONUT,2799 16th St,94103,37.765262,-122.41523,"(37.765262, -122.41523)",14155867112,4907_20170105,1/5/17,80,4907_20170105_103142,Unclean nonfood contact surfaces,Low Risk
38530,Portico IV,550 Market St,94104,37.789804,-122.40077,"(37.789804, -122.40077)",14155399994,38530_20160512,5/12/16,85,38530_20160512_103105,Improper cooling methods,High Risk
3838,CAFE PICARO,3120 16th St,94103,37.764908,-122.422442,"(37.764908, -122.422442)",14155434089,3838_20180222,2/22/18,72,3838_20180222_103109,Unclean or unsanitary food contact surfaces,High Risk
557,KATIA'S,600 05th Ave,94118,37.77721,-122.462874,"(37.77721, -122.462874)",14155669292,557_20160629,6/29/16,85,557_20160629_103105,Improper cooling methods,High Risk
2755,SOCIALE,3665 SACRAMENTO St,94118,37.787364,-122.45299,"(37.787364, -122.45299)",14155920309,2755_20161205,12/5/16,85,2755_20161205_103144,Unapproved or unmaintained equipment or utensils,Low Risk
65725,Le Meridien SF Park Grill Restaurant & Bar,333 Battery St Level 2 & 3,94111,37.799005,-122.399862,"(37.799005, -122.399862)",14155292904,65725_20161108,11/8/16,92,65725_20161108_103154,Unclean or degraded floors walls or ceilings,Low Risk
59009,Woodhouse Fish Co.,1914 FILLMORE St,94116,37.787386,-122.433476,"(37.787386, -122.433476)",14155432722,59009_20160926,9/26/16,92,59009_20160926_103133,Foods not protected from contamination,Moderate Risk
65725,Le Meridien SF Park Grill Restaurant & Bar,333 Battery St Level 2 & 3,94111,37.799005,-122.399862,"(37.799005, -122.399862)",14155292904,65725_20161108,11/8/16,92,65725_20161108_103143,Inadequate warewashing facilities or equipment,Low Risk
2134,"CHIEFTAIN IRISH PUB, THE",198 05th St,94103,37.781567,-122.405059,"(37.781567, -122.405059)",14155610916,2134_20171211,12/11/17,87,2134_20171211_103127,Noncompliance with HAACP plan or variance,Moderate Risk
1381,PEBBLE'S CAFE,2852 Diamond St,94131,37.73382,-122.434093,"(37.73382, -122.434093)",14155332270,1381_20180719,7/19/18,96,1381_20180719_103144,Unapproved or unmaintained equipment or utensils,Low Risk
63124,Marengo on Union,1980 Union St Upper Street Level,94123,37.797578,-122.431883,"(37.797578, -122.431883)",14155442575,63124_20160929,9/29/16,94,63124_20160929_103118,Employee eating or smoking,Moderate Risk
62277,Tacos San Buena,16th & Shotwell St,94102,37.779847,-122.418985,"(37.779847, -122.418985)",14155556127,62277_20180221,2/21/18,87,62277_20180221_103144,Unapproved or unmaintained equipment or utensils,Low Risk
2384,TWO JACKS SEAFOOD,401 HAIGHT St,94117,37.772274,-122.428997,"(37.772274, -122.428997)",14155436290,2384_20160323,3/23/16,91,2384_20160323_103103,High risk food holding temperature,High Risk
6000,Mission Neighborhood Centers,362 Capp St,94110,37.761007,-122.418215,"(37.761007, -122.418215)",14155207747,6000_20160324,3/24/16,92,6000_20160324_103116,Inadequate food safety knowledge or lack of certified food safety manager,Moderate Risk
69181,Cha-Ya Restaurant,762 Valencia St,94110,37.760777,-122.421505,"(37.760777, -122.421505)",14155257825,69181_20180719,7/19/18,89,69181_20180719_103105,Improper cooling methods,High Risk
5850,Zaida T. Rodriguez (ZTR) Child Development Center,2950  Mission St,94110,37.749837,-122.418255,"(37.749837, -122.418255)",14155695844,5850_20180223,2/23/18,100,,,
7361,PastaGina,741 Diamond St,94114,37.751403,-122.436286,"(37.751403, -122.436286)",14155280738,7361_20160503,5/3/16,86,7361_20160503_103161,Low risk vermin infestation,Low Risk
300,SUBWAY,2001 VAN NESS Ave,94109,37.794134,-122.423234,"(37.794134, -122.423234)",14155779929,300_20160413,4/13/16,68,300_20160413_103120,Moderate risk food holding temperature,Moderate Risk
3869,SAFEWAY #739,3350 MISSION St,94110,37.742998,-122.421638,"(37.742998, -122.421638)",14155822866,3869_20180608,6/8/18,94,3869_20180608_103149,Wiping cloths not clean or properly stored or inadequate sanitizer,Low Risk
7207,GOLDEN PRODUCE,172 CHURCH St,94114,37.768187,-122.429024,"(37.768187, -122.429024)",14155431536,7207_20170105,1/5/17,92,7207_20170105_103131,Moderate risk vermin infestation,Moderate Risk
59838,OTD,2232 Bush St,94115,37.786988,-122.434074,"(37.786988, -122.434074)",14155929578,59838_20180723,7/23/18,80,59838_20180723_103119,Inadequate and inaccessible handwashing facilities,Moderate Risk
323,WAYO,1407 VAN NESS Ave,94109,37.788609,-122.42213,"(37.788609, -122.42213)",14155478369,323_20161108,11/8/16,94,323_20161108_103120,Moderate risk food holding temperature,Moderate Risk
61816,Bullitt,2209 Polk St,94109,37.797114,-122.422034,"(37.797114, -122.422034)",14155995053,61816_20170508,5/8/17,80,61816_20170508_103154,Unclean or degraded floors walls or ceilings,Low Risk
68257,AFC SUSHI at Mollie Stone's #10,635 Portola Dr,94127,37.744876,-122.452425,"(37.744876, -122.452425)",14155661600,68257_20180718,7/18/18,100,,,
3621,JIM'S RESTAURANT,2420 MISSION St,94110,37.758271,-122.419081,"(37.758271, -122.419081)",14155286020,3621_20160908,9/8/16,92,3621_20160908_103154,Unclean or degraded floors walls or ceilings,Low Risk
5033,DESTINATION BAKING COMPANY,598 Chenery St,94131,37.734619,-122.432379,"(37.734619, -122.432379)",14155460730,5033_20160414,4/14/16,94,5033_20160414_103154,Unclean or degraded floors walls or ceilings,Low Risk
60544,Manzoni,2790 Diamond St,94131,37.73473,-122.433823,"(37.73473, -122.433823)",14155332251,60544_20160415,4/15/16,98,60544_20160415_103157,Food safety certificate or food handler card not available,Low Risk
544,THAI TIME RESTAURANT,315 08th Ave,94118,37.782534,-122.466615,"(37.782534, -122.466615)",14155387992,544_20160608,6/8/16,78,544_20160608_103131,Moderate risk vermin infestation,Moderate Risk
544,THAI TIME RESTAURANT,315 08th Ave,94118,37.782534,-122.466615,"(37.782534, -122.466615)",14155387992,544_20160608,6/8/16,78,544_20160608_103105,Improper cooling methods,High Risk
38530,Portico IV,550 Market St,94104,37.789804,-122.40077,"(37.789804, -122.40077)",14155399994,38530_20160512,5/12/16,85,38530_20160512_103144,Unapproved or unmaintained equipment or utensils,Low Risk
7755,ARIZMENDI BAKERY,1331 09th Ave,94122,37.763448,-122.466344,"(37.763448, -122.466344)",14155563117,7755_20180904,9/4/18,92,7755_20180904_103154,Unclean or degraded floors walls or ceilings,Low Risk
2357,CHINA EXPRESS,2798 MISSION St,94110,37.752408,-122.418535,"(37.752408, -122.418535)",14155640881,2357_20151230,12/30/15,70,2357_20151230_103119,Inadequate and inaccessible handwashing facilities,Moderate Risk
5868,LONGFELLOW ELEMENTARY SCHOOL,755 MORSE St,94112,37.710459,-122.447713,"(37.710459, -122.447713)",14155464730,5868_20160908,9/8/16,90,5868_20160908_103129,Insufficient hot water or running water,Moderate Risk
5955,SF CHRISTIAN DAY SCHOOL,25 WHITTIER St,94112,37.709896,-122.448082,"(37.709896, -122.448082)",14155581117,5955_20160908,9/8/16,93,5955_20160908_103102,Unclean hands or improper use of gloves,High Risk
5118,KFC,1150 TARAVAL St,94116,37.742948,-122.478732,"(37.742948, -122.478732)",14155733314,5118_20160512,5/12/16,98,5118_20160512_103154,Unclean or degraded floors walls or ceilings,Low Risk
38530,Portico IV,550 Market St,94104,37.789804,-122.40077,"(37.789804, -122.40077)",14155399994,38530_20160512,5/12/16,85,38530_20160512_103124,Inadequately cleaned or sanitized food contact surfaces,Moderate Risk
1931,YUMMY YUMMY VIETNAMESE RESTAURANT,1015 IRVING St,94122,37.763913,-122.468809,"(37.763913, -122.468809)",14155564722,1931_20180108,1/8/18,92,1931_20180108_103120,Moderate risk food holding temperature,Moderate Risk
7361,PastaGina,741 Diamond St,94114,37.751403,-122.436286,"(37.751403, -122.436286)",14155280738,7361_20160503,5/3/16,86,7361_20160503_103120,Moderate risk food holding temperature,Moderate Risk
4794,VICTOR'S,210 TOWNSEND St,94107,37.778634,-122.393089,"(37.778634, -122.393089)",14155607018,4794_20170105,1/5/17,90,4794_20170105_103131,Moderate risk vermin infestation,Moderate Risk
300,SUBWAY,2001 VAN NESS Ave,94109,37.794134,-122.423234,"(37.794134, -122.423234)",14155779929,300_20160413,4/13/16,68,300_20160413_103102,Unclean hands or improper use of gloves,High Risk
2317,BURGER JOINT,807 VALENCIA St,94110,37.759933,-122.421356,"(37.759933, -122.421356)",14155823494,2317_20160816,8/16/16,93,2317_20160816_103102,Unclean hands or improper use of gloves,High Risk
62578,New Chef Hung's Restaurant,823 Clay St,94108,37.794193,-122.406677,"(37.794193, -122.406677)",14155396883,62578_20171207,12/7/17,66,62578_20171207_103154,Unclean or degraded floors walls or ceilings,Low Risk
62308,Sam's Diner,1220 Market Street,94102,37.778497,-122.415146,"(37.778497, -122.415146)",14155628590,62308_20160203,2/3/16,72,62308_20160203_103116,Inadequate food safety knowledge or lack of certified food safety manager,Moderate Risk
5919,SAN FRANCISCO DAY SCHOOL,350 MASONIC St,94118,37.777988,-122.446877,"(37.777988, -122.446877)",14155932422,5919_20180914,9/14/18,98,5919_20180914_103144,Unapproved or unmaintained equipment or utensils,Low Risk
544,THAI TIME RESTAURANT,315 08th Ave,94118,37.782534,-122.466615,"(37.782534, -122.466615)",14155387992,544_20160608,6/8/16,78,544_20160608_103103,High risk food holding temperature,High Risk
63047,Roam Artisan Burgers,1785 UNION St,94123,37.797954,-122.428477,"(37.797954, -122.428477)",14155414247,63047_20160906,9/6/16,91,63047_20160906_103105,Improper cooling methods,High Risk
62578,New Chef Hung's Restaurant,823 Clay St,94108,37.794193,-122.406677,"(37.794193, -122.406677)",14155396883,62578_20171207,12/7/17,66,62578_20171207_103129,Insufficient hot water or running water,Moderate Risk
4643,CHEUNG HING CHINESE DELI & MEAT INC,323 Clement St,94118,37.782993,-122.462709,"(37.782993, -122.462709)",14155754259,4643_20160512,5/12/16,67,4643_20160512_103132,Improper thawing methods,Moderate Risk
7636,LEE'S FOOD MARKET,1397 Revere Ave,94124,37.729455,-122.386364,"(37.729455, -122.386364)",14155822818,7636_20161019,10/19/16,81,7636_20161019_103154,Unclean or degraded floors walls or ceilings,Low Risk
37651,Jack In The Box #545,400 Geary St,94102,37.787168,-122.410124,"(37.787168, -122.410124)",14155670868,37651_20161114,11/14/16,87,37651_20161114_103142,Unclean nonfood contact surfaces,Low Risk
4643,CHEUNG HING CHINESE DELI & MEAT INC,323 Clement St,94118,37.782993,-122.462709,"(37.782993, -122.462709)",14155754259,4643_20160512,5/12/16,67,4643_20160512_103103,High risk food holding temperature,High Risk
7361,PastaGina,741 Diamond St,94114,37.751403,-122.436286,"(37.751403, -122.436286)",14155280738,7361_20160503,5/3/16,86,7361_20160503_103139,Improper food storage,Low Risk
5868,LONGFELLOW ELEMENTARY SCHOOL,755 MORSE St,94112,37.710459,-122.447713,"(37.710459, -122.447713)",14155464730,5868_20160908,9/8/16,90,5868_20160908_103119,Inadequate and inaccessible handwashing facilities,Moderate Risk
32671,La Taqueria Guadalajara,3146 24th St,94110,37.752512,-122.415109,"(37.752512, -122.415109)",14155644892,32671_20180508,5/8/18,75,32671_20180508_103156,Permit license or inspection report not posted,Low Risk
5877,CLAIRE LILIENTHAL SCHOOL-MADISON CA,3950 SACRAMENTO St,94118,37.786808,-122.458014,"(37.786808, -122.458014)",14155758603,5877_20160411,4/11/16,94,5877_20160411_103116,Inadequate food safety knowledge or lack of certified food safety manager,Moderate Risk
1042,LOVE 'N HAIGHT COFFEE & DELI,553 HAIGHT St,94117,37.771964,-122.431336,"(37.771964, -122.431336)",14155258190,1042_20171211,12/11/17,92,1042_20171211_103131,Moderate risk vermin infestation,Moderate Risk
5794,LINCOLN HIGH SCHOOL,2162 24th Ave,94116,37.747228,-122.481299,"(37.747228, -122.481299)",14155752700,5794_20160907,9/7/16,96,5794_20160907_103154,Unclean or degraded floors walls or ceilings,Low Risk
6007,BAYVIEE HUNTER Pt. ADULT DAY HE,1250 LA SALLE,94124,37.73241,-122.383559,"(37.73241, -122.383559)",14155824774,6007_20180718,7/18/18,94,6007_20180718_103144,Unapproved or unmaintained equipment or utensils,Low Risk
19416,Starbucks,865 Market St C26,94103,37.784317,-122.407563,"(37.784317, -122.407563)",14155604908,19416_20160629,6/29/16,94,19416_20160629_103144,Unapproved or unmaintained equipment or utensils,Low Risk
37651,Jack In The Box #545,400 Geary St,94102,37.787168,-122.410124,"(37.787168, -122.410124)",14155670868,37651_20161114,11/14/16,87,37651_20161114_103154,Unclean or degraded floors walls or ceilings,Low Risk
7361,PastaGina,741 Diamond St,94114,37.751403,-122.436286,"(37.751403, -122.436286)",14155280738,7361_20160503,5/3/16,86,7361_20160503_103153,Inadequate dressing rooms or improper storage of personal items,Low Risk
7636,LEE'S FOOD MARKET,1397 Revere Ave,94124,37.729455,-122.386364,"(37.729455, -122.386364)",14155822818,7636_20161019,10/19/16,81,7636_20161019_103114,High risk vermin infestation,High Risk
1778,Academy Bar & Kitchen,1800 Fillmore St,94115,37.786498,-122.430283,"(37.786498, -122.430283)",14155771800,1778_20171213,12/13/17,94,1778_20171213_103124,Inadequately cleaned or sanitized food contact surfaces,Moderate Risk
70494,The Little Chihuahua Mexican Restaurant,581 VALENCIA St,94110,37.763664,-122.421736,"(37.763664, -122.421736)",14155207111,70494_20160216,2/16/16,92,70494_20160216_103154,Unclean or degraded floors walls or ceilings,Low Risk
18462,Jack's Market,471 03rd St,94107,37.781607,-122.396125,"(37.781607, -122.396125)",14150297778,18462_20180515,5/15/18,96,18462_20180515_103119,Inadequate and inaccessible handwashing facilities,Moderate Risk
5815,ALVARADO ELEMENTARY SCHOOL,625  DOUGLASS St,94114,37.753684,-122.438696,"(37.753684, -122.438696)",14155695695,5815_20180227,2/27/18,100,,,
63047,Roam Artisan Burgers,1785 UNION St,94123,37.797954,-122.428477,"(37.797954, -122.428477)",14155414247,63047_20160906,9/6/16,91,63047_20160906_103149,Wiping cloths not clean or properly stored or inadequate sanitizer,Low Risk
1339,HIGHER GROUNDS,691 CHENERY St,94131,37.734483,-122.43368,"(37.734483, -122.43368)",14155582933,1339_20160414,4/14/16,90,1339_20160414_103149,Wiping cloths not clean or properly stored or inadequate sanitizer,Low Risk
2759,CASA MEXICANA,180 CHURCH,94114,37.768127,-122.429024,"(37.768127, -122.429024)",14155802771,2759_20180516,5/16/18,84,2759_20180516_103119,Inadequate and inaccessible handwashing facilities,Moderate Risk
5794,LINCOLN HIGH SCHOOL,2162 24th Ave,94116,37.747228,-122.481299,"(37.747228, -122.481299)",14155752700,5794_20171207,12/7/17,100,,,
36160,Zabb,4440 Mission St,94112,37.726489,-122.433485,"(37.726489, -122.433485)",14155582455,36160_20161208,12/8/16,94,36160_20161208_103142,Unclean nonfood contact surfaces,Low Risk
7095,ABE'S MARKET,378 FILLMORE St,94117,37.772822,-122.430498,"(37.772822, -122.430498)",14155862576,7095_20171211,12/11/17,92,7095_20171211_103144,Unapproved or unmaintained equipment or utensils,Low Risk
557,KATIA'S,600 05th Ave,94118,37.77721,-122.462874,"(37.77721, -122.462874)",14155669292,557_20160629,6/29/16,85,557_20160629_103147,Inadequate ventilation or lighting,Low Risk
1950,BULLSHEAD RESTAURANT,840 ULLOA St,94127,37.740785,-122.465507,"(37.740785, -122.465507)",14155664350,1950_20170126,1/26/17,89,1950_20170126_103142,Unclean nonfood contact surfaces,Low Risk
69217,Orexi Inc.,243 WEST PORTAL Ave,94127,37.738434,-122.468438,"(37.738434, -122.468438)",14155863810,69217_20180830,8/30/18,92,69217_20180830_103124,Inadequately cleaned or sanitized food contact surfaces,Moderate Risk
4881,STOP N SHOP,3000 Mission St,94110,37.748924,-122.418144,"(37.748924, -122.418144)",14155550905,4881_20161021,10/21/16,90,4881_20161021_103141,Improper food labeling or menu misrepresentation,Low Risk
1626,LUPA TRATTORIA,4109 24th St,94114,37.751243,-122.434529,"(37.751243, -122.434529)",14155644664,1626_20161003,10/3/16,92,1626_20161003_103142,Unclean nonfood contact surfaces,Low Risk
544,THAI TIME RESTAURANT,315 08th Ave,94118,37.782534,-122.466615,"(37.782534, -122.466615)",14155387992,544_20160608,6/8/16,78,544_20160608_103132,Improper thawing methods,Moderate Risk
32671,La Taqueria Guadalajara,3146 24th St,94110,37.752512,-122.415109,"(37.752512, -122.415109)",14155644892,32671_20180508,5/8/18,75,32671_20180508_103124,Inadequately cleaned or sanitized food contact surfaces,Moderate Risk
2315,TAQUERIA CAN-CUN,2288 MISSION St,94110,37.760487,-122.419285,"(37.760487, -122.419285)",14155259560,2315_20161207,12/7/16,88,2315_20161207_103154,Unclean or degraded floors walls or ceilings,Low Risk
70452,Kennedy Market & Deli,4600 03rd St,94124,37.736301,-122.390293,"(37.736301, -122.390293)",14155285560,70452_20151007,10/7/15,90,70452_20151007_103124,Inadequately cleaned or sanitized food contact surfaces,Moderate Risk
1249,KABABAYAN FAST FOOD,2706 MISSION St,94110,37.753691,-122.418657,"(37.753691, -122.418657)",14155929635,1249_20180515,5/15/18,74,1249_20180515_103142,Unclean nonfood contact surfaces,Low Risk
2315,TAQUERIA CAN-CUN,2288 MISSION St,94110,37.760487,-122.419285,"(37.760487, -122.419285)",14155259560,2315_20160418,4/18/16,83,2315_20160418_103120,Moderate risk food holding temperature,Moderate Risk
7207,GOLDEN PRODUCE,172 CHURCH St,94114,37.768187,-122.429024,"(37.768187, -122.429024)",14155431536,7207_20170105,1/5/17,92,7207_20170105_103139,Improper food storage,Low Risk
5819,MIRALOMA ELEMENTARY SCHOOL,175 OMAR Way,94127,37.739266,-122.450227,"(37.739266, -122.450227)",14155464734,5819_20160315,3/15/16,100,,,
2759,CASA MEXICANA,180 CHURCH,94114,37.768127,-122.429024,"(37.768127, -122.429024)",14155802771,2759_20180516,5/16/18,84,2759_20180516_103133,Foods not protected from contamination,Moderate Risk
62308,Sam's Diner,1220 Market Street,94102,37.778497,-122.415146,"(37.778497, -122.415146)",14155628590,62308_20160203,2/3/16,72,62308_20160203_103154,Unclean or degraded floors walls or ceilings,Low Risk
2352,SMILE'S  B.B.Q.,2619 MISSION St,94110,37.755013,-122.418665,"(37.755013, -122.418665)",14155281596,2352_20180719,7/19/18,90,2352_20180719_103124,Inadequately cleaned or sanitized food contact surfaces,Moderate Risk
3838,CAFE PICARO,3120 16th St,94103,37.764908,-122.422442,"(37.764908, -122.422442)",14155434089,3838_20180223,2/23/18,72,,,
3621,JIM'S RESTAURANT,2420 MISSION St,94110,37.758271,-122.419081,"(37.758271, -122.419081)",14155286020,3621_20160908,9/8/16,92,3621_20160908_103149,Wiping cloths not clean or properly stored or inadequate sanitizer,Low Risk
5607,SFSU STATION CAFE,1600 Holloway Ave,94132,37.720851,-122.477084,"(37.720851, -122.477084)",14155374525,5607_20171128,11/28/17,87,5607_20171128_103144,Unapproved or unmaintained equipment or utensils,Low Risk
5010,LATTE EXPRESS,48 05th St,94103,37.783225,-122.407252,"(37.783225, -122.407252)",14155287328,5010_20160331,3/31/16,92,5010_20160331_103139,Improper food storage,Low Risk
5851,ROOFTOP SCHOOL,443 Burnett Ave,94131,37.754685,-122.443967,"(37.754685, -122.443967)",14155695692,5851_20160309,3/9/16,94,,,
3825,COVE CAFE,434 CASTRO St,94114,37.761918,-122.435135,"(37.761918, -122.435135)",14155620462,3825_20180724,7/24/18,90,3825_20180724_103124,Inadequately cleaned or sanitized food contact surfaces,Moderate Risk
70685,5 Degree Tea House,2527 SAN BRUNO Ave,94134,37.729753,-122.40447,"(37.729753, -122.40447)",14155828233,70685_20171212,12/12/17,86,70685_20171212_103124,Inadequately cleaned or sanitized food contact surfaces,Moderate Risk
5999,The Salvation Army,1156 Valencia St,94110,37.754397,-122.420915,"(37.754397, -122.420915)",14155640260,5999_20180724,7/24/18,90,5999_20180724_103131,Moderate risk vermin infestation,Moderate Risk
63618,Contraband Coffee LLC,1415 Larkin St,94109,37.790933,-122.41914,"(37.790933, -122.41914)",14155221520,63618_20160328,3/28/16,96,63618_20160328_103154,Unclean or degraded floors walls or ceilings,Low Risk
64524,Fresca Restaurant,737 IRVING St,94122,37.764033,-122.4659,"(37.764033, -122.4659)",14155745727,64524_20160630,6/30/16,96,64524_20160630_103150,Improper or defective plumbing,Low Risk
7207,GOLDEN PRODUCE,172 CHURCH St,94114,37.768187,-122.429024,"(37.768187, -122.429024)",14155431536,7207_20170105,1/5/17,92,7207_20170105_103150,Improper or defective plumbing,Low Risk
1619,BENDERS BAR & GRILL,800-806 SOUTH VAN NESS Ave,94110,37.76031,-122.417123,"(37.76031, -122.417123)",14155558050,1619_20160628,6/28/16,94,1619_20160628_103157,Food safety certificate or food handler card not available,Low Risk
2315,TAQUERIA CAN-CUN,2288 MISSION St,94110,37.760487,-122.419285,"(37.760487, -122.419285)",14155259560,2315_20160418,4/18/16,83,2315_20160418_103133,Foods not protected from contamination,Moderate Risk
64379,Piccadilly Fish & Chips,1348 Polk St,94109,37.789299,-122.420352,"(37.789299, -122.420352)",14155776477,64379_20180911,9/11/18,92,64379_20180911_103124,Inadequately cleaned or sanitized food contact surfaces,Moderate Risk
19041,Nama Sushi,227 King St,94107,37.777398,-122.392391,"(37.777398, -122.392391)",14155492007,19041_20161110,11/10/16,85,19041_20161110_103119,Inadequate and inaccessible handwashing facilities,Moderate Risk
184,RADIO HABANA,1109 VALENCIA St,94110,37.755124,-122.420916,"(37.755124, -122.420916)",14155827659,184_20161003,10/3/16,98,184_20161003_103149,Wiping cloths not clean or properly stored or inadequate sanitizer,Low Risk
26341,"Natural Market, Inc.",2201 PINE St,94115,37.788113,-122.432147,"(37.788113, -122.432147)",14155921320,26341_20180723,7/23/18,96,26341_20180723_103116,Inadequate food safety knowledge or lack of certified food safety manager,Moderate Risk
4907,JIM GEORGIE'S DONUT,2799 16th St,94103,37.765262,-122.41523,"(37.765262, -122.41523)",14155867112,4907_20170105,1/5/17,80,4907_20170105_103143,Inadequate warewashing facilities or equipment,Low Risk
5849,NEW TRADITIONS ALTERNATIVE SCHOOL,2049 GROVE St,94117,37.774333,-122.450327,"(37.774333, -122.450327)",14155758490,5849_20180913,9/13/18,100,,,
2384,TWO JACKS SEAFOOD,401 HAIGHT St,94117,37.772274,-122.428997,"(37.772274, -122.428997)",14155436290,2384_20160323,3/23/16,91,2384_20160323_103138,Improper storage use or identification of toxic substances,Low Risk
62578,New Chef Hung's Restaurant,823 Clay St,94108,37.794193,-122.406677,"(37.794193, -122.406677)",14155396883,62578_20171207,12/7/17,66,62578_20171207_103132,Improper thawing methods,Moderate Risk
903,Sabra Restaurant,419 Grant Ave,94108,37.790874,-122.405634,"(37.790874, -122.405634)",14155983656,903_20171211,12/11/17,91,903_20171211_103105,Improper cooling methods,High Risk
5868,LONGFELLOW ELEMENTARY SCHOOL,755 MORSE St,94112,37.710459,-122.447713,"(37.710459, -122.447713)",14155464730,5868_20160908,9/8/16,90,5868_20160908_103161,Low risk vermin infestation,Low Risk
5877,CLAIRE LILIENTHAL SCHOOL-MADISON CA,3950 SACRAMENTO St,94118,37.786808,-122.458014,"(37.786808, -122.458014)",14155758603,5877_20180913,9/13/18,100,,,
5835,Rosa Parks Elementary School,1501 O'Farrell St,94115,37.783604,-122.430141,"(37.783604, -122.430141)",14155745519,5835_20160318,3/18/16,94,5835_20160318_103131,Moderate risk vermin infestation,Moderate Risk
3838,CAFE PICARO,3120 16th St,94103,37.764908,-122.422442,"(37.764908, -122.422442)",14155434089,3838_20180222,2/22/18,72,3838_20180222_103154,Unclean or degraded floors walls or ceilings,Low Risk
26149,Mrs. Fields Cookies,865 Market St 9000,94103,37.784317,-122.407563,"(37.784317, -122.407563)",14155971993,26149_20180516,5/16/18,92,26149_20180516_103143,Inadequate warewashing facilities or equipment,Low Risk
19373,Las Isletas,4508 03rd St,94124,37.737021,-122.390043,"(37.737021, -122.390043)",14155577698,19373_20151013,10/13/15,87,19373_20151013_103119,Inadequate and inaccessible handwashing facilities,Moderate Risk
4643,CHEUNG HING CHINESE DELI & MEAT INC,323 Clement St,94118,37.782993,-122.462709,"(37.782993, -122.462709)",14155754259,4643_20160512,5/12/16,67,4643_20160512_103102,Unclean hands or improper use of gloves,High Risk
1626,LUPA TRATTORIA,4109 24th St,94114,37.751243,-122.434529,"(37.751243, -122.434529)",14155644664,1626_20161003,10/3/16,92,1626_20161003_103145,Improper storage of equipment utensils or linens,Low Risk
4881,STOP N SHOP,3000 Mission St,94110,37.748924,-122.418144,"(37.748924, -122.418144)",14155550905,4881_20161021,10/21/16,90,4881_20161021_103144,Unapproved or unmaintained equipment or utensils,Low Risk
557,KATIA'S,600 05th Ave,94118,37.77721,-122.462874,"(37.77721, -122.462874)",14155669292,557_20160629,6/29/16,85,557_20160629_103157,Food safety certificate or food handler card not available,Low Risk
62578,New Chef Hung's Restaurant,823 Clay St,94108,37.794193,-122.406677,"(37.794193, -122.406677)",14155396883,62578_20171207,12/7/17,66,62578_20171207_103119,Inadequate and inaccessible handwashing facilities,Moderate Risk
68773,Nopalito,1224 9th Ave,94122,37.765412,-122.466375,"(37.765412, -122.466375)",14155430303,68773_20180214,2/14/18,90,68773_20180214_103154,Unclean or degraded floors walls or ceilings,Low Risk
5010,LATTE EXPRESS,48 05th St,94103,37.783225,-122.407252,"(37.783225, -122.407252)",14155287328,5010_20160331,3/31/16,92,5010_20160331_103161,Low risk vermin infestation,Low Risk
4434,NOE VALLEY BAKERY & BREAD CO.,4073 24th St,94114,37.751314,-122.433409,"(37.751314, -122.433409)",14155551405,4434_20160608,6/8/16,96,4434_20160608_103161,Low risk vermin infestation,Low Risk
1734,SAI JAI THAI,771 O'FARRELL St,94109,37.785182,-122.417409,"(37.785182, -122.417409)",14155675774,1734_20160311,3/11/16,82,1734_20160311_103144,Unapproved or unmaintained equipment or utensils,Low Risk
6001,PRESIDIO GATE APARTMENTS,2770 LOMBARD St,94123,37.798558,-122.446784,"(37.798558, -122.446784)",14155561050,6001_20180222,2/22/18,100,,,
59838,OTD,2232 Bush St,94115,37.786988,-122.434074,"(37.786988, -122.434074)",14155929578,59838_20180723,7/23/18,80,59838_20180723_103109,Unclean or unsanitary food contact surfaces,High Risk
61816,Bullitt,2209 Polk St,94109,37.797114,-122.422034,"(37.797114, -122.422034)",14155995053,61816_20170508,5/8/17,80,61816_20170508_103138,Improper storage use or identification of toxic substances,Low Risk
2357,CHINA EXPRESS,2798 MISSION St,94110,37.752408,-122.418535,"(37.752408, -122.418535)",14155640881,2357_20151230,12/30/15,70,2357_20151230_103131,Moderate risk vermin infestation,Moderate Risk
71356,Padrecito,901 Cole St,94117,37.765644,-122.449974,"(37.765644, -122.449974)",14155502083,71356_20170606,6/6/17,87,71356_20170606_103142,Unclean nonfood contact surfaces,Low Risk
7636,LEE'S FOOD MARKET,1397 Revere Ave,94124,37.729455,-122.386364,"(37.729455, -122.386364)",14155822818,7636_20151027,10/27/15,81,7636_20151027_103139,Improper food storage,Low Risk
5838,HARVEY MILK ELEMENTARY SCHOOL,4235 19th St,94114,37.759173,-122.436488,"(37.759173, -122.436488)",14155246276,5838_20160316,3/16/16,90,5838_20160316_103124,Inadequately cleaned or sanitized food contact surfaces,Moderate Risk
62578,New Chef Hung's Restaurant,823 Clay St,94108,37.794193,-122.406677,"(37.794193, -122.406677)",14155396883,62578_20171207,12/7/17,66,62578_20171207_103116,Inadequate food safety knowledge or lack of certified food safety manager,Moderate Risk
5804,JUNIPERO SERRA ELEMENTARY SCHOOL,625 HOLLY PARK Cir,94110,37.736683,-122.421132,"(37.736683, -122.421132)",14155695685,5804_20180226,2/26/18,100,,,
2352,SMILE'S  B.B.Q.,2619 MISSION St,94110,37.755013,-122.418665,"(37.755013, -122.418665)",14155281596,2352_20180719,7/19/18,90,2352_20180719_103120,Moderate risk food holding temperature,Moderate Risk
4893,S & W MARKET,399 HAIGHT St,94102,37.772323,-122.428627,"(37.772323, -122.428627)",14155862346,4893_20171211,12/11/17,92,4893_20171211_103152,Unclean unmaintained or improperly constructed toilet facilities,Low Risk
32671,La Taqueria Guadalajara,3146 24th St,94110,37.752512,-122.415109,"(37.752512, -122.415109)",14155644892,32671_20180508,5/8/18,75,32671_20180508_103105,Improper cooling methods,High Risk
4519,HSS 121 CAFE,1600 HOLLOWAY Ave,94132,37.720851,-122.477084,"(37.720851, -122.477084)",14155374525,4519_20160509,5/9/16,96,4519_20160509_103129,Insufficient hot water or running water,Moderate Risk
1042,LOVE 'N HAIGHT COFFEE & DELI,553 HAIGHT St,94117,37.771964,-122.431336,"(37.771964, -122.431336)",14155258190,1042_20171211,12/11/17,92,1042_20171211_103118,Employee eating or smoking,Moderate Risk
741,MOZZARELLA DI BUFALA PIZZERIA II,069 WEST PORTAL Ave,94127,37.740052,-122.466544,"(37.740052, -122.466544)",14155668900,741_20180222,2/22/18,94,741_20180222_103144,Unapproved or unmaintained equipment or utensils,Low Risk
3317,Pane e Vino Trattoria,1715 UNION St,94123,37.798063,-122.427637,"(37.798063, -122.427637)",14155442111,3317_20160906,9/6/16,93,3317_20160906_103105,Improper cooling methods,High Risk
27377,Sorabol,845 Market St FC-3,94103,37.784848,-122.406892,"(37.784848, -122.406892)",14155775959,27377_20180514,5/14/18,87,27377_20180514_103124,Inadequately cleaned or sanitized food contact surfaces,Moderate Risk
2357,CHINA EXPRESS,2798 MISSION St,94110,37.752408,-122.418535,"(37.752408, -122.418535)",14155640881,2357_20151230,12/30/15,70,2357_20151230_103109,Unclean or unsanitary food contact surfaces,High Risk
2759,CASA MEXICANA,180 CHURCH,94114,37.768127,-122.429024,"(37.768127, -122.429024)",14155802771,2759_20180516,5/16/18,84,2759_20180516_103161,Low risk vermin infestation,Low Risk
5825,GUADALUPE ELEMENTARY SCHOOL,859 PRAGUE St,94112,37.710464,-122.434202,"(37.710464, -122.434202)",14155464718,5825_20160908,9/8/16,100,,,
63897,Bob's Donuts and Pastries,1621 Polk St,94109,37.791914,-122.420984,"(37.791914, -122.420984)",14155773141,63897_20160406,4/6/16,96,63897_20160406_103154,Unclean or degraded floors walls or ceilings,Low Risk
6007,BAYVIEE HUNTER Pt. ADULT DAY HE,1250 LA SALLE,94124,37.73241,-122.383559,"(37.73241, -122.383559)",14155824774,6007_20180718,7/18/18,94,6007_20180718_103123,Food in poor condition,Moderate Risk
5843,HOOVER MIDDLE SCHOOL,2290 14th Ave,94116,37.745374,-122.470308,"(37.745374, -122.470308)",14155752783,5843_20160412,4/12/16,86,5843_20160412_103129,Insufficient hot water or running water,Moderate Risk
36160,Zabb,4440 Mission St,94112,37.726489,-122.433485,"(37.726489, -122.433485)",14155582455,36160_20161208,12/8/16,94,36160_20161208_103138,Improper storage use or identification of toxic substances,Low Risk
5838,HARVEY MILK ELEMENTARY SCHOOL,4235 19th St,94114,37.759173,-122.436488,"(37.759173, -122.436488)",14155246276,5838_20160316,3/16/16,90,5838_20160316_103144,Unapproved or unmaintained equipment or utensils,Low Risk
2032,QUEEN ANNE HOTEL,1590 SUTTER St,94109,37.786988,-122.426464,"(37.786988, -122.426464)",14155442828,2032_20160126,1/26/16,90,2032_20160126_103129,Insufficient hot water or running water,Moderate Risk
71380,Curry Up Now,659 Valencia St,94110,37.762265,-122.421586,"(37.762265, -122.421586)",14155827000,71380_20180516,5/16/18,94,71380_20180516_103133,Foods not protected from contamination,Moderate Risk
2315,TAQUERIA CAN-CUN,2288 MISSION St,94110,37.760487,-122.419285,"(37.760487, -122.419285)",14155259560,2315_20161207,12/7/16,88,2315_20161207_103120,Moderate risk food holding temperature,Moderate Risk
